~Version Information Section
 VERS.      2.0         :CWLS LOG ASCII STANDARD - VERSION 2.0
 WRAP.      NO          :SINGLE LINE PER DEPTH STEP
 CREA.      8/24/2012 12:51:22
~Well Information Section
#MNEM.UNIT                      VALUE/NAME                 DESCRIPTION
#----.----     ----------------------------------   --------------------
 STRT .m          1517.0000000                         :START DEPTH
 STOP .m          3850.7012000                         :STOP DEPTH
 STEP .m            0.15240000                         :STEP VALUE
 NULL .            -999.250000                          :NULL VALUE
 SRVC .          SCH                                  :Service Company/Logging company
 DATE .          08/24/2012                           :LAS file Creation Date
 WELL .          KK1                                  :Well Name
 COMP .          NPK                                  :Company
 FLD  .          DY                                   :Field
 STATE.                                               :State
 COUNT.                                               :Country
 LOC  .                                               :Location
 LATI .          0                                    :Latitude/Northing
 LONG .          0                                    :Longitude/Easting
 PDAT .          RT                                   :Permanent Datum
 EPDAT.          0.0000                               :Elevation of Permanent Datum
 LGMEA.          RT                                   :Log Measured from
 KB   .          15.0000                              :KB Elevation
 UWI.            KK1                                  :UNIQUE WELL ID

#==================================================================
~Curve
DEPT .m                   : DEPTH
DT .us/ft                 : DT
RHOB           .g/cm3     : RHOB
SW  .m3/m3                : SW 
PHIE           .m3/m3     : PHIE

~Parameter
#==================================================================
~Ascii
# ...
 2688.6512000 62.466098785 2.5738999844  -999.250000 -999.250000
 2688.8036000 62.135898590 2.5843000412  -999.250000 -999.250000
 2688.9560000 61.987998962 2.5945000648  -999.250000 -999.250000
 2689.1084000 62.046501160 2.6012001038  -999.250000 -999.250000
 2689.2608000 62.251098633 2.6026999950  -999.250000 -999.250000
 2689.4132000 62.391201019 2.6010000706  -999.250000 -999.250000
 2689.5656000 62.340301514 2.5996000767  -999.250000 -999.250000
 2689.7180000 62.172500610 2.5992999077  -999.250000 -999.250000
 2689.8704000 61.993198395 2.5971999168  -999.250000 -999.250000
 2690.0228000 61.881999969 2.5910000801  -999.250000 -999.250000
 2690.1752000 61.889198303 2.5801999569  -999.250000 -999.250000
 2690.3276000 62.048999786 2.5680999756  -999.250000 -999.250000
 2690.4800000 62.445999146 2.5578000546  -999.250000 -999.250000
 2690.6324000 63.040401459 2.5510001183  -999.250000 -999.250000
 2690.7848000 63.840801239 2.5497000217  -999.250000 -999.250000
 2690.9372000 64.725601196 2.5524001122  -999.250000 -999.250000
 2691.0896000 65.420501709 2.5564000607  -999.250000 -999.250000
 2691.2420000 65.784301758 2.5583999157  -999.250000 -999.250000
 2691.3944000 65.830703735 2.5564000607  -999.250000 -999.250000
 2691.5468000 65.850502014 2.5513000488  -999.250000 -999.250000
 2691.6992000 66.084899902 2.5446000099  -999.250000 -999.250000
 2691.8516000 66.505599976 2.5390999317  -999.250000 -999.250000
 2692.0040000 66.858497620 2.5369000435  -999.250000 -999.250000
 2692.1564000 66.905502319 2.5383000374  -999.250000 -999.250000
 2692.3088000 66.643501282 2.5418000221  -999.250000 -999.250000
 2692.4612000 66.169700623 2.5457000732  -999.250000 -999.250000
 2692.6136000 65.686096191 2.5494999886  -999.250000 -999.250000
 2692.7660000 65.350601196 2.5529000759  -999.250000 -999.250000
 2692.9184000 65.283996582 2.5552000999  -999.250000 -999.250000
 2693.0708000 65.478996277 2.5553998947  -999.250000 -999.250000
 2693.2232000 65.627502441 2.5539999008  -999.250000 -999.250000
 2693.3756000 65.532997131 2.5515000820  -999.250000 -999.250000
 2693.5280000 65.319396973 2.5490999222  -999.250000 -999.250000
 2693.6804000 65.243301392 2.5473001003  -999.250000 -999.250000
 2693.8328000 65.395896912 2.5460999012  -999.250000 -999.250000
 2693.9852000 65.689796448 2.5448999405  -999.250000 -999.250000
 2694.1376000 65.833702087 2.5434000492  -999.250000 -999.250000
 2694.2900000 65.723297119 2.5411000252  -999.250000 -999.250000
 2694.4424000 65.439102173 2.5388000011  -999.250000 -999.250000
 2694.5948000 65.096397400 2.5381000042  -999.250000 -999.250000
 2694.7472000 64.795303345 2.5402998924  -999.250000 -999.250000
 2694.8996000 64.593902588 2.5453999043  -999.250000 -999.250000
 2695.0520000 64.574203491 2.5508999825  -999.250000 -999.250000
 2695.2044000 64.780700684 2.5536000729  -999.250000 -999.250000
 2695.3568000 65.024299622 2.5506999493  -999.250000 -999.250000
 2695.5092000 64.948997498 2.5423998833  -999.250000 -999.250000
 2695.6616000 64.521499634 2.5320999622  -999.250000 -999.250000
 2695.8140000 64.032699585 2.5244998932  -999.250000 -999.250000
 2695.9664000 63.858798981 2.5241999626  -999.250000 -999.250000
 2696.1188000 64.068000793 2.5311000347  -999.250000 -999.250000
 2696.2712000 64.390800476 2.5420000553  -999.250000 -999.250000
 2696.4236000 64.536102295 2.5522000790  -999.250000 -999.250000
 2696.5760000 64.455299377 2.5583000183  -999.250000 -999.250000
 2696.7284000 64.302597046 2.5610001087  -999.250000 -999.250000
 2696.8808000 64.256896973 2.5608000755  -999.250000 -999.250000
 2697.0332000 64.322097778 2.5583999157  -999.250000 -999.250000
 2697.1856000 64.567199707 2.5525000095  -999.250000 -999.250000
 2697.3380000 65.115798950 2.5439000130  -999.250000 -999.250000
 2697.4904000 65.870697021 2.5337998867  -999.250000 -999.250000
 2697.6428000 66.541000366 2.5239999294  -999.250000 -999.250000
 2697.7952000 66.993499756 2.5151998997  -999.250000 -999.250000
 2697.9476000 67.305999756 2.5072000027  -999.250000 -999.250000
 2698.1000000 67.535400391 2.5007998943  -999.250000 -999.250000
 2698.2524000 67.666198730 2.4972999096  -999.250000 -999.250000
 2698.4048000 67.702400208 2.4969999790  -999.250000 -999.250000
 2698.5572000 67.685096741 2.4990999699  -999.250000 -999.250000
 2698.7096000 67.535896301 2.5025000572  -999.250000 -999.250000
 2698.8620000 67.018600464 2.5076000690  -999.250000 -999.250000
 2699.0144000 66.072998047 2.5157001019  -999.250000 -999.250000
 2699.1668000 64.922096252 2.5290000439  -999.250000 -999.250000
 2699.3192000 63.914100647 2.5471000671  -999.250000 -999.250000
 2699.4716000 62.931499481 2.5680999756  -999.250000 -999.250000
 2699.6240000 62.011501312 2.5880999565  -999.250000 -999.250000
 2699.7764000 61.254398346 2.6043999195  -999.250000 -999.250000
 2699.9288000 60.542301178 2.6177000999 0.7724000216 .0680000037
 2700.0812000 59.967899323 2.6275999546 0.8359000087 .0617000014
 2700.2336000 59.670398712 2.6335000992 0.8853999972 .0579000004
 2700.3860000 59.754001617 2.6331000328 0.8871999979 .0581000000
 2700.5384000 60.023498535 2.6284000874 0.8702999949 .0597999990
 2700.6908000 60.297199249 2.6222999096 0.8368999958 .0628999993
 2700.8432000 60.489898682 2.6175999641 0.8112999797 .0654999986
 2700.9956000 60.687698364 2.6149001122 0.7994999886 .0669000000
 2701.1480000 60.867698669 2.6136999130 0.7947999835 .0675000027
 2701.3004000 60.927200317 2.6140000820 0.7937999964 .0674000010
 2701.4528000 60.853500366 2.6159000397 0.7993999720 .0666000023
 2701.6052000 60.704601288 2.6191000938 0.8100000024 .0652000010
 2701.7576000 60.513301849 2.6219000816 0.8184000254 .0637999997
 2701.9100000 60.237201691 2.6236000061 0.8248000145 .0623999983
 2702.0624000 60.018699646 2.6240999699 0.8227000237 .0615000017
 2702.2148000 59.986598969 2.6247999668 0.8108000159 .0612999983
 2702.3672000 60.164501190 2.6266000271 0.7987999916 .0610000007
 2702.5196000 60.391899109 2.6289000511 0.7957000136 .0601999983
 2702.6720000 60.485000610 2.6303999424 0.8021000028 .0592000000
 2702.8244000 60.449199677 2.6301999092 0.8033000231 .0593999997
 2702.9768000 60.298801422 2.6284000874 0.7929000258 .0610000007
 2703.1292000 60.234699249 2.6263999939 0.7879999876 .0623000003
 2703.2816000 60.341201782 2.6252000332 0.7885000110 .0625000000
 2703.4340000 60.495399475 2.6252000332 0.7857999802 .0621000007
 2703.5864000 60.530998230 2.6268000603 0.7764999866 .0615999997
 2703.7388000 60.398601532 2.6294000149 0.7771000266 .0604999997
 2703.8912000 60.166801453 2.6315999031 0.7978000045 .0584999993
 2704.0436000 59.994400024 2.6312999725 0.8116000295 .0582000017
 2704.1960000 59.979801178 2.6273000240 0.8116000295 .0601999983
 2704.3484000 60.093799591 2.6215999126 0.8029999733 .0631000027
 2704.5008000 60.267299652 2.6177000999 0.8075000048 .0649000034
 2704.6532000 60.453201294 2.6173000336 0.8327999711 .0648000017
 2704.8056000 60.654701233 2.6191999912 0.8632000089 .0640999973
 2704.9580000 60.852699280 2.6203000546 0.8787000179 .0643000007
 2705.1104000 61.033798218 2.6191999912 0.8787999749 .0653999969
 2705.2628000 61.213500977 2.6171998978 0.8665999770 .0667999983
 2705.4152000 61.417701721 2.6154000759 0.8435999751 .0687000006
 2705.5676000 61.666500092 2.6133999825 0.8108999729 .0713000000
 2705.7200000 61.948600769 2.6101000309 0.7843000293 .0737000033
 2705.8724000 62.258701324 2.6054000854 0.7746000290 .0755999982
 2706.0248000 62.553600311 2.5999999046 0.7727000117 .0782999992
 2706.1772000 62.746700287 2.5940999985 0.7757999897 .0822999999
 2706.3296000 62.779800415 2.5875000954 0.7858999968 .0860999972
 2706.4820000 62.438499451 2.5804998875 0.7940000296 .0895999968
 2706.6344000 61.803199768 2.5745999813 0.7911000252 .0935000032
 2706.7868000 61.142898560 2.5715000629 0.7821999788 .0970000029
 2706.9392000 60.830898285 2.5710000992 0.7825000286 .0987000018
 2707.0916000 61.110500336 2.5720000267 0.7867000103 .0991000012
 2707.2440000 61.722499847 2.5724999905 0.8007000089 .0975999981
 2707.3964000 62.245601654 2.5720999241 0.7961999774 .0978000015
