~Version Information Section
 VERS.      2.0         :CWLS LOG ASCII STANDARD - VERSION 2.0
 WRAP.      NO          :SINGLE LINE PER DEPTH STEP
 CREA.      8/24/2012 12:51:22
~Well Information Section
#MNEM.UNIT                      VALUE/NAME                 DESCRIPTION
#----.----     ----------------------------------   --------------------
 STRT .m          1517.0000000                         :START DEPTH
 STOP .m          3850.7012000                         :STOP DEPTH
 STEP .m            0.15240000                         :STEP VALUE
 NULL .            -999.250000                          :NULL VALUE
 SRVC .          SCH                                  :Service Company/Logging company
 DATE .          08/24/2012                           :LAS file Creation Date
 WELL .          KK1                                  :Well Name
 COMP .          NPK                                  :Company
 FLD  .          DY                                   :Field
 STATE.                                               :State
 COUNT.                                               :Country
 LOC  .                                               :Location
 LATI .          0                                    :Latitude/Northing
 LONG .          0                                    :Longitude/Easting
 PDAT .          RT                                   :Permanent Datum
 EPDAT.          0.0000                               :Elevation of Permanent Datum
 LGMEA.          RT                                   :Log Measured from
 KB   .          15.0000                              :KB Elevation
 UWI.            KK1                                  :UNIQUE WELL ID

#==================================================================
~Curve
DEPT .m                   : DEPTH
DT .us/ft                 : DT
RHOB           .g/cm3     : RHOB
SW  .m3/m3                : SW 
PHIE           .m3/m3     : PHIE

~Parameter
#==================================================================
~Ascii
# ...
 3878.5904000 68.337303162 2.3877999783  -999.250000  -999.250000
 3878.7428000 70.047096252 2.3714001179  -999.250000  -999.250000
 3878.8952000 70.778198242 2.3473000526  -999.250000  -999.250000
 3879.0476000 72.556396484 2.3331000805  -999.250000  -999.250000
 3879.2000000 73.206802368 2.3445000648  -999.250000  -999.250000
 3879.3524000 70.083801270 2.3785998821  -999.250000  -999.250000
 3879.5048000 66.840797424 2.4212000370  -999.250000  -999.250000
 3879.6572000 64.512001038 2.4670000076  -999.250000  -999.250000
 3879.8096000 63.341400146 2.4844999313  -999.250000  -999.250000
 3879.9620000 65.056396484 2.4655001163  -999.250000  -999.250000
 3880.1144000 66.994300842 2.4282999039  -999.250000  -999.250000
 3880.2668000 66.617202759 2.4272000790  -999.250000  -999.250000
 3880.4192000 64.235603333 2.4790000916  -999.250000  -999.250000
 3880.5716000 62.400600433 2.5680000782  -999.250000  -999.250000
 3880.7240000 62.333400726 2.6224999428  -999.250000  -999.250000
 3880.8764000 64.592597961 2.5866000652  -999.250000  -999.250000
 3881.0288000 68.665603638 2.4800999165  -999.250000  -999.250000
 3881.1812000 72.766700745 2.3889999390  -999.250000  -999.250000
 3881.3336000 75.041397095 2.3545999527  -999.250000  -999.250000
 3881.4860000 76.333396912 2.3515999317  -999.250000  -999.250000
 3881.6384000 77.102897644 2.3512001038  -999.250000  -999.250000
 3881.7908000 76.647697449 2.3469998837  -999.250000  -999.250000
 3881.9432000 76.373596191 2.3469998837  -999.250000  -999.250000
 3882.0956000 76.021797180 2.3517999649  -999.250000  -999.250000
 3882.2480000 74.868896484 2.3717999458  -999.250000  -999.250000
 3882.4004000 73.343597412 2.4019000530  -999.250000  -999.250000
 3882.5528000 70.394203186 2.4284000397  -999.250000  -999.250000
 3882.7052000 66.899398804 2.4849998951  -999.250000  -999.250000
 3882.8576000 63.149898529 2.5715000629  -999.250000  -999.250000
 3883.0100000 60.639099121 2.6350998878  -999.250000  -999.250000
 3883.1624000 62.374198914 2.6108000278  -999.250000  -999.250000
 3883.3148000 66.029403687 2.5039000511  -999.250000  -999.250000
 3883.4672000 70.698997498 2.4007000923  -999.250000  -999.250000
 3883.6196000 75.553298950 2.3445999622  -999.250000  -999.250000
 3883.7720000 77.453102112 2.3311998844  -999.250000  -999.250000
 3883.9244000 78.365303040 2.3385999203  -999.250000  -999.250000
 3884.0768000 78.980697632 2.3443999290  -999.250000  -999.250000
 3884.2292000 79.004898071 2.3554999828  -999.250000  -999.250000
 3884.3816000 78.718902588 2.3601999283  -999.250000  -999.250000
 3884.5340000 78.389503479 2.3624999523  -999.250000  -999.250000
 3884.6864000 77.616600037 2.3624000549  -999.250000  -999.250000
 3884.8388000 76.552902222 2.3622999191  -999.250000  -999.250000
 3884.9912000 75.932197571 2.3886001110  -999.250000  -999.250000
 3885.1436000 75.189697266 2.3770999908  -999.250000  -999.250000
 3885.2960000 75.735702515 2.3062000275  -999.250000  -999.250000
 3885.4484000 77.092002869 2.2757000923  -999.250000  -999.250000
 3885.6008000 77.875297546 2.3699998856  -999.250000  -999.250000
 3885.7532000 78.784500122 2.5504999161  -999.250000  -999.250000
 3885.9056000 78.757499695 2.6545000076  -999.250000  -999.250000
 3886.0580000 79.567802429 2.6724998951  -999.250000  -999.250000
 3886.2104000 80.475898743 2.6707999706  -999.250000  -999.250000
 3886.3628000 81.538597107 2.6382999420  -999.250000  -999.250000
 3886.5152000 82.715499878 2.5919001102  -999.250000  -999.250000
 3886.6676000 82.632202148 2.5627999306  -999.250000  -999.250000
 3886.8200000 80.289596558 2.5855000019  -999.250000  -999.250000
 3886.9724000 77.110900879 2.5971999168  -999.250000  -999.250000
 3887.1248000 76.718399048 2.6171998978  -999.250000  -999.250000
 3887.2772000 76.731597900 2.6366999149  -999.250000  -999.250000
 3887.4296000 77.435699463 2.6451001167  -999.250000  -999.250000
 3887.5820000 79.067802429 2.5662000179  -999.250000  -999.250000
 3887.7344000 79.479301453 2.4660999775  -999.250000  -999.250000
 3887.8868000 79.725303650 2.4658999443  -999.250000  -999.250000
 3888.0392000 80.137901306 2.5280001163  -999.250000  -999.250000
 3888.1916000 78.117202759 2.5639998913  -999.250000  -999.250000
 3888.3440000 75.790802002 2.4751999378  -999.250000  -999.250000
 3888.4964000 73.774696350 2.3633999825  -999.250000  -999.250000
 3888.6488000 72.295402527 2.3375999928  -999.250000  -999.250000
 3888.8012000 71.839103699 2.3615000248  -999.250000  -999.250000
 3888.9536000 71.164901733 2.4119999409  -999.250000  -999.250000
 3889.1060000 69.447097778 2.4330000877  -999.250000  -999.250000
 3889.2584000 68.817199707 2.4351000786  -999.250000  -999.250000
 3889.4108000 68.182800293 2.3856000900  -999.250000  -999.250000
 3889.5632000 70.472503662 2.3691000938  -999.250000  -999.250000
 3889.7156000 72.351799011 2.4347000122  -999.250000  -999.250000
 3889.8680000 73.851799011 2.5267999172  -999.250000  -999.250000
 3890.0204000 74.009201050 2.5508999825  -999.250000  -999.250000
 3890.1728000 72.079902649 2.4839999676  -999.250000  -999.250000
 3890.3252000 70.382698059 2.3538999557  -999.250000  -999.250000
 3890.4776000 68.635002136 2.2978999615  -999.250000  -999.250000
 3890.6300000 67.327003479 2.3210000992  -999.250000  -999.250000
 3890.7824000 65.496498108 2.4423000813  -999.250000  -999.250000
 3890.9348000 63.526401520 2.5153999329  -999.250000  -999.250000
 3891.0872000 63.694301605 2.5401000977  -999.250000  -999.250000
 3891.2396000 64.641403198 2.5585999489  -999.250000  -999.250000
 3891.3920000 65.694297791 2.5855998993  -999.250000  -999.250000
 3891.5444000 66.273597717 2.6110000610  -999.250000  -999.250000
 3891.6968000 67.006896973 2.5945999622  -999.250000  -999.250000
 3891.8492000 68.123596191 2.5652000904  -999.250000  -999.250000
 3892.0016000 68.378700256 2.5459001064  -999.250000  -999.250000
 3892.1540000 70.108100891 2.5329999924  -999.250000  -999.250000
 3892.3064000 73.987396240 2.5413999557  -999.250000  -999.250000
 3892.4588000 77.082801819 2.5636999607  -999.250000  -999.250000
 3892.6112000 79.538002014 2.6010000706  -999.250000  -999.250000
 3892.7636000 80.947700500 2.6129000187  -999.250000  -999.250000
 3892.9160000 79.845901489 2.5999000072  -999.250000  -999.250000
 3893.0684000 78.053398132 2.5782001019  -999.250000  -999.250000
 3893.2208000 76.850601196 2.5443999767  -999.250000  -999.250000
 3893.3732000 76.636199951 2.5606000423  -999.250000  -999.250000
 3893.5256000 78.403503418 2.6029000282  -999.250000  -999.250000
 3893.6780000 81.017303467 2.6493999958  -999.250000  -999.250000
 3893.8304000 82.820098877 2.6524000168  -999.250000  -999.250000
 3893.9828000 83.910301208 2.6484000683  -999.250000  -999.250000
 3894.1352000 84.320701599 2.6547999382  -999.250000  -999.250000
 3894.2876000 84.552902222 2.6626999378  -999.250000  -999.250000
 3894.4400000 83.987297058 2.6637001038  -999.250000  -999.250000
 3894.5924000 83.284500122 2.6551001072  -999.250000  -999.250000
 3894.7448000 83.110298157 2.6468999386  -999.250000  -999.250000
 3894.8972000 82.711502075 2.6445000172  -999.250000  -999.250000
 3895.0496000 80.357398987 2.6352000237  -999.250000  -999.250000
 3895.2020000 77.535003662 2.6003000736  -999.250000  -999.250000
 3895.3544000 75.675201416 2.5685999393  -999.250000  -999.250000
 3895.5068000 73.926399231 2.5592000484  -999.250000  -999.250000
 3895.6592000 74.149398804 2.5610001087  -999.250000  -999.250000
 3895.8116000 74.786796570 2.5706999302  -999.250000  -999.250000
 3895.9640000 75.401802063 2.5697999001  -999.250000  -999.250000
 3896.1164000 76.864997864 2.5847001076  -999.250000  -999.250000
 3896.2688000 78.467300415 2.5908000469  -999.250000  -999.250000
 3896.4212000 80.545997620 2.6113998890  -999.250000  -999.250000
 3896.5736000 82.147102356 2.6352000237  -999.250000  -999.250000
 3896.7260000 82.822998047 2.6565001011  -999.250000  -999.250000
 3896.8784000 82.924697876 2.6526000500  -999.250000  -999.250000
 3897.0308000 81.279899597 2.6287999153  -999.250000  -999.250000
