~Version Information Section
 VERS.      2.0         :CWLS LOG ASCII STANDARD - VERSION 2.0
 WRAP.      NO          :SINGLE LINE PER DEPTH STEP
 CREA.      8/24/2012 12:51:22
~Well Information Section
#MNEM.UNIT                      VALUE/NAME                 DESCRIPTION
#----.----     ----------------------------------   --------------------
 STRT .m          1517.0000000                         :START DEPTH
 STOP .m          3850.7012000                         :STOP DEPTH
 STEP .m            0.15240000                         :STEP VALUE
 NULL .            -999.250000                          :NULL VALUE
 SRVC .          SCH                                  :Service Company/Logging company
 DATE .          08/24/2012                           :LAS file Creation Date
 WELL .          KK1                                  :Well Name
 COMP .          NPK                                  :Company
 FLD  .          DY                                   :Field
 STATE.                                               :State
 COUNT.                                               :Country
 LOC  .                                               :Location
 LATI .          0                                    :Latitude/Northing
 LONG .          0                                    :Longitude/Easting
 PDAT .          RT                                   :Permanent Datum
 EPDAT.          0.0000                               :Elevation of Permanent Datum
 LGMEA.          RT                                   :Log Measured from
 KB   .          15.0000                              :KB Elevation
 UWI.            KK1                                  :UNIQUE WELL ID

#==================================================================
~Curve
DEPT .m                   : DEPTH
DT .us/ft                 : DT
RHOB           .g/cm3     : RHOB
SW  .m3/m3                : SW 
PHIE           .m3/m3     : PHIE

~Parameter
#==================================================================
~Ascii
# ...
 3085.5008000 75.100402832 2.3891999722 1.0000000000 .2223999947
 3085.6532000 75.255302429 2.3912999630 1.0000000000 .2211000025
 3085.8056000 75.518501282 2.3938000202 1.0000000000 .2196000069
 3085.9580000 75.799598694 2.3952000141 1.0000000000 .2189999968
 3086.1104000 75.996200562 2.3958001137 1.0000000000 .2188999951
 3086.2628000 76.001502991 2.3952999115 1.0000000000 .2195000052
 3086.4152000 75.851196289 2.3928999901 1.0000000000 .2213999927
 3086.5676000 75.625297546 2.3866000175 1.0000000000 .2257000059
 3086.7200000 75.398498535 2.3784999847 1.0000000000 .2310000062
 3086.8724000 75.151901245 2.3722999096 1.0000000000 .2349999994
 3087.0248000 74.895896912 2.3708999157 1.0000000000 .2357999980
 3087.1772000 74.751701355 2.3736000061 1.0000000000 .2339999974
 3087.3296000 74.843299866 2.3761999607 1.0000000000 .2324000001
 3087.4820000 75.241500854 2.3756000996 1.0000000000 .2325000018
 3087.6344000 75.783401489 2.3729999065 1.0000000000 .2333000004
 3087.7868000 76.233001709 2.3719000816 1.0000000000 .2333000004
 3087.9392000 76.438201904 2.3745999336 1.0000000000 .2310999930
 3088.0916000 76.466796875 2.3794000149 1.0000000000 .2274000049
 3088.2440000 76.511299133 2.3828999996 1.0000000000 .2247000039
 3088.3964000 76.660797119 2.3842999935 1.0000000000 .2237000018
 3088.5488000 76.836502075 2.3866000175 1.0000000000 .2225999981
 3088.7012000 76.901603699 2.3915998936 1.0000000000 .2198999971
 3088.8536000 76.830398560 2.3973000050 1.0000000000 .2163999975
 3089.0060000 76.766098022 2.3996000290 1.0000000000 .2151000053
 3089.1584000 76.909698486 2.3966999054 1.0000000000 .2169000059
 3089.3108000 77.326797485 2.3917999268 1.0000000000 .2197999954
 3089.4632000 77.971801758 2.3877999783 1.0000000000 .2222000062
 3089.6156000 78.584701538 2.3854000568 1.0000000000 .2234999985
 3089.7680000 78.879798889 2.3838999271 1.0000000000 .2252999991
 3089.9204000 78.866897583 2.3831000328 1.0000000000 .2265000045
 3090.0728000 78.520599365 2.3845000267 1.0000000000 .2256000042
 3090.2252000 77.939903259 2.3889999390 1.0000000000 .2222000062
 3090.3776000 77.066902161 2.3968999386 1.0000000000 .2168000042
 3090.5300000 75.914703369 2.4052000046 1.0000000000 .2116000056
 3090.6824000 74.530601501 2.4100999832 1.0000000000 .2087000012
 3090.8348000 73.184097290 2.4100000858 1.0000000000 .2092999965
 3090.9872000 72.096702576 2.4059000015 1.0000000000 .2124000043
 3091.1396000 71.307502747 2.4007000923 1.0000000000 .2163999975
 3091.2920000 70.748298645 2.3958001137 1.0000000000 .2202000022
 3091.4444000 70.342002869 2.3921000957 1.0000000000 .2229000032
 3091.5968000 70.051902771 2.3907001019 1.0000000000 .2234999985
 3091.7492000 69.872497559 2.3931999207 1.0000000000 .2208999991
 3091.9016000 69.907096863 2.3987998962 1.0000000000 .2166000009
 3092.0540000 70.241897583 2.4045000076 1.0000000000 .2125999928
 3092.2064000 70.923698425 2.4072999954 1.0000000000 .2106000036
 3092.3588000 71.922798157 2.4059998989 1.0000000000 .2110999972
 3092.5112000 73.170196533 2.4033999443 1.0000000000 .2125000060
 3092.6636000 74.435997009 2.4010999203 1.0000000000 .2138999999
 3092.8160000 75.174598694 2.3991999626 1.0000000000 .2152000070
 3092.9684000 75.365699768 2.3961999416 1.0000000000 .2172999978
 3093.1208000 75.393096924 2.3914999962 1.0000000000 .2198999971
 3093.2732000 75.369400024 2.3852000237 1.0000000000 .2231999934
 3093.4256000 75.257499695 2.3791999817 1.0000000000 .2269999981
 3093.5780000 75.019401550 2.3756999969 1.0000000000 .2296999991
 3093.7304000 74.720901489 2.3761000633 1.0000000000 .2296999991
 3093.8828000 74.440002441 2.3805000782 1.0000000000 .2275999933
 3094.0352000 74.253501892 2.3873000145 1.0000000000 .2240999937
 3094.1876000 74.210502625 2.3938999176 1.0000000000 .2203000039
 3094.3400000 74.279403687 2.3986001015 1.0000000000 .2175000012
 3094.4924000 74.370597839 2.4003999233 1.0000000000 .2163999975
 3094.6448000 74.411903381 2.3993999958 1.0000000000 .2169999927
 3094.7972000 74.415603638 2.3961999416 1.0000000000 .2189999968
 3094.9496000 74.409599304 2.3917000294 1.0000000000 .2215999961
 3095.1020000 74.412696838 2.3875999451 1.0000000000 .2237000018
 3095.2544000 74.459098816 2.3861000538 1.0000000000 .2246000022
 3095.4068000 74.532203674 2.3875999451 1.0000000000 .2238000035
 3095.5592000 74.539398193 2.3919999599 1.0000000000 .2210000008
 3095.7116000 74.420303345 2.3973999023 1.0000000000 .2171999961
 3095.8640000 74.181503296 2.4021999836 1.0000000000 .2138999999
 3096.0164000 73.878196716 2.4059998989 0.9998000264 .2110999972
 3096.1688000 73.338500977 2.4100000858 0.9861000180 .2071000040
 3096.3212000 72.367797852 2.4168000221 0.9832999706 .2018000036
 3096.4736000 70.778503418 2.4284999371 1.0000000000 .1947000027
 3096.6260000 68.880203247 2.4418001175 1.0000000000 .1862999946
 3096.7784000 67.074302673 2.4498999119 1.0000000000 .1816000044
 3096.9308000 65.791496277 2.4495999813 1.0000000000 .1824000031
 3097.0832000 65.429702759 2.4444999695 1.0000000000 .1861999929
 3097.2356000 66.037101746 2.4439001083 1.0000000000 .1869000047
 3097.3880000 67.521797180 2.4519999027 1.0000000000 .1821999997
 3097.5404000 69.237098694 2.4642000198 1.0000000000 .1746000051
 3097.6928000 70.376800537 2.4732999802 1.0000000000 .1686999947
 3097.8452000 70.328300476 2.4753999710 1.0000000000 .1676000059
 3097.9976000 69.238197327 2.4734001160 1.0000000000 .1694000065
 3098.1500000 68.062202454 2.4727001190 1.0000000000 .1697999984
 3098.3024000 67.723899841 2.4760999680 1.0000000000 .1669999957
 3098.4548000 68.543197632 2.4832999706 1.0000000000 .1624000072
 3098.6072000 69.936500549 2.4900000095 1.0000000000 .1582999974
 3098.7596000 71.063598633 2.4914000034 1.0000000000 .1571999937
 3098.9120000 71.475601196 2.4874000549 1.0000000000 .1594000012
 3099.0644000 71.027496338 2.4758999348 1.0000000000 .1667000055
 3099.2168000 70.120300293 2.4544999599 1.0000000000 .1802999973
 3099.3692000 69.083702087 2.4200000763 1.0000000000 .2022999972
 3099.5216000 68.197601318 2.3833999634 0.9629999995 .2243999988
 3099.6740000 67.713096619 2.3603000641 0.9201999903 .2378000021
 3099.8264000 67.803001404 2.3577001095 0.9118000269 .2397000045
 3099.9788000 68.677803040 2.3738000393 0.9376000166 .2312999964
 3100.1312000 70.037300110 2.3965001106 0.9848999977 .2193000019
 3100.2836000 71.367202759 2.4179999828 1.0000000000 .2057999969
 3100.4360000 72.368202209 2.4316000938 1.0000000000 .1960999966
 3100.5884000 72.915802002 2.4351000786 1.0000000000 .1929000020
 3100.7408000 73.003997803 2.4337999821 1.0000000000 .1931000054
 3100.8932000 72.736503601 2.4331998825 1.0000000000 .1932999939
 3101.0456000 72.337898254 2.4356000423 1.0000000000 .1920000017
 3101.1980000 71.990699768 2.4395999908 1.0000000000 .1897000074
 3101.3504000 71.788101196 2.4428999424 1.0000000000 .1878000051
 3101.5028000 71.694396973 2.4442999363 1.0000000000 .1868000031
 3101.6552000 71.617103577 2.4442000389 1.0000000000 .1865999997
 3101.8076000 71.472198486 2.4447999001 1.0000000000 .1859000027
 3101.9600000 71.217201233 2.4482998848 1.0000000000 .1835000068
 3102.1124000 71.067596436 2.4532001019 1.0000000000 .1801999956
 3102.2648000 71.081901550 2.4563999176 1.0000000000 .1784999967
 3102.4172000 70.950996399 2.4553000927 1.0000000000 .1797000021
 3102.5696000 71.016098022 2.4477999210 1.0000000000 .1842000037
 3102.7220000 71.861503601 2.4365000725 1.0000000000 .1904000044
 3102.8744000 73.408798218 2.4251999855 1.0000000000 .1968999952
 3103.0268000 74.597602844 2.4182000160 1.0000000000 .2011000067
 3103.1792000 74.737899780 2.4184999466 1.0000000000 .2005999982
 3103.3316000 74.377601624 2.4247999191 1.0000000000 .1964000016
 3103.4840000 73.766296387 2.4347000122 1.0000000000 .1905000061
 3103.6364000 73.051399231 2.4444999695 1.0000000000 .1844999939
 3103.7888000 72.317497253 2.4519000053 1.0000000000 .1794999987
 3103.9412000 71.667800903 2.4563999176 1.0000000000 .1764999926
 3104.0936000 71.186599731 2.4577000141 1.0000000000 .1764000058
 3104.2460000 70.919998169 2.4556999207 1.0000000000 .1785999984
