~Version Information Section
 VERS.      2.0         :CWLS LOG ASCII STANDARD - VERSION 2.0
 WRAP.      NO          :SINGLE LINE PER DEPTH STEP
 CREA.      8/24/2012 12:51:22
~Well Information Section
#MNEM.UNIT                      VALUE/NAME                 DESCRIPTION
#----.----     ----------------------------------   --------------------
 STRT .m          1517.0000000                         :START DEPTH
 STOP .m          3850.7012000                         :STOP DEPTH
 STEP .m            0.15240000                         :STEP VALUE
 NULL .            -999.250000                          :NULL VALUE
 SRVC .          SCH                                  :Service Company/Logging company
 DATE .          08/24/2012                           :LAS file Creation Date
 WELL .          KK1                                  :Well Name
 COMP .          NPK                                  :Company
 FLD  .          DY                                   :Field
 STATE.                                               :State
 COUNT.                                               :Country
 LOC  .                                               :Location
 LATI .          0                                    :Latitude/Northing
 LONG .          0                                    :Longitude/Easting
 PDAT .          RT                                   :Permanent Datum
 EPDAT.          0.0000                               :Elevation of Permanent Datum
 LGMEA.          RT                                   :Log Measured from
 KB   .          15.0000                              :KB Elevation
 UWI.            KK1                                  :UNIQUE WELL ID

#==================================================================
~Curve
DEPT .m                   : DEPTH
DT .us/ft                 : DT
RHOB           .g/cm3     : RHOB
SW  .m3/m3                : SW 
PHIE           .m3/m3     : PHIE

~Parameter
#==================================================================
~Ascii
# ...
 1913.8496000 75.550003052 2.4825999737  -999.250000 -999.250000
 1914.0020000 75.515899658 2.4881000519  -999.250000 -999.250000
 1914.1544000 75.046600342 2.4962000847  -999.250000 -999.250000
 1914.3068000 75.017097473 2.5002000332  -999.250000 -999.250000
 1914.4592000 75.263603210 2.5060000420  -999.250000 -999.250000
 1914.6116000 75.443199158 2.5072000027  -999.250000 -999.250000
 1914.7640000 75.332901001 2.5122001171  -999.250000 -999.250000
 1914.9164000 75.055603027 2.5150001049  -999.250000 -999.250000
 1915.0688000 74.439796448 2.5085000992  -999.250000 -999.250000
 1915.2212000 74.306800842 2.4923000336  -999.250000 -999.250000
 1915.3736000 74.423896790 2.4756000042  -999.250000 -999.250000
 1915.5260000 74.760200500 2.4651999474  -999.250000 -999.250000
 1915.6784000 74.917098999 2.4628999233  -999.250000 -999.250000
 1915.8308000 75.180702209 2.4734001160  -999.250000 -999.250000
 1915.9832000 75.596603394 2.4702000618  -999.250000 -999.250000
 1916.1356000 75.526100159 2.4758000374  -999.250000 -999.250000
 1916.2880000 75.196601868 2.4721000195  -999.250000 -999.250000
 1916.4404000 75.187500000 2.4693999290  -999.250000 -999.250000
 1916.5928000 75.706802368 2.4727001190  -999.250000 -999.250000
 1916.7452000 75.830703735 2.4848001003  -999.250000 -999.250000
 1916.8976000 76.229499817 2.4907999039  -999.250000 -999.250000
 1917.0500000 76.001197815 2.4995000362  -999.250000 -999.250000
 1917.2024000 76.737503052 2.5002999306  -999.250000 -999.250000
 1917.3548000 77.365997314 2.4858000278  -999.250000 -999.250000
 1917.5072000 79.083099365 2.4823999405  -999.250000 -999.250000
 1917.6596000 80.964797974 2.4695999622  -999.250000 -999.250000
 1917.8120000 81.853401184 2.4412000179  -999.250000 -999.250000
 1917.9644000 81.848800659 2.4084999561  -999.250000 -999.250000
 1918.1168000 81.139801025 2.3884000778  -999.250000 -999.250000
 1918.2692000 80.942001343 2.3877999783  -999.250000 -999.250000
 1918.4216000 80.122703552 2.4149000645  -999.250000 -999.250000
 1918.5740000 79.715896606 2.4223001003  -999.250000 -999.250000
 1918.7264000 79.164703369 2.4326999187  -999.250000 -999.250000
 1918.8788000 78.020500183 2.4393000603  -999.250000 -999.250000
 1919.0312000 78.392097473 2.4676001072  -999.250000 -999.250000
 1919.1836000 79.680702209 2.4663000107  -999.250000 -999.250000
 1919.3360000 80.099998474 2.4625999928  -999.250000 -999.250000
 1919.4884000 80.106796265 2.4598999023  -999.250000 -999.250000
 1919.6408000 80.053298950 2.4721000195  -999.250000 -999.250000
 1919.7932000 78.019302368 2.4791998863  -999.250000 -999.250000
 1919.9456000 77.675102234 2.4902999401  -999.250000 -999.250000
 1920.0980000 78.703399658 2.4770998955  -999.250000 -999.250000
 1920.2504000 78.797798157 2.4591999054  -999.250000 -999.250000
 1920.4028000 79.501197815 2.4497001171  -999.250000 -999.250000
 1920.5552000 80.121498108 2.4477999210  -999.250000 -999.250000
 1920.7076000 79.026100159 2.4593000412  -999.250000 -999.250000
 1920.8600000 78.699996948 2.4681000710  -999.250000 -999.250000
 1921.0124000 78.699996948 2.4783999920  -999.250000 -999.250000
 1921.1648000 78.747802734 2.4707999229  -999.250000 -999.250000
 1921.3172000 79.430702209 2.4630999565  -999.250000 -999.250000
 1921.4696000 79.819297791 2.4493999481  -999.250000 -999.250000
 1921.6220000 79.420501709 2.4528000355  -999.250000 -999.250000
 1921.7744000 79.672698975 2.4558999538  -999.250000 -999.250000
 1921.9268000 79.265899658 2.4621999264  -999.250000 -999.250000
 1922.0792000 78.820503235 2.4700000286  -999.250000 -999.250000
 1922.2316000 79.086402893 2.4681999683  -999.250000 -999.250000
 1922.3840000 78.903396606 2.4628999233  -999.250000 -999.250000
 1922.5364000 78.932899475 2.4681000710  -999.250000 -999.250000
 1922.6888000 78.740898132 2.4570999146  -999.250000 -999.250000
 1922.8412000 79.306800842 2.4447999001  -999.250000 -999.250000
 1922.9936000 79.427299500 2.4272000790  -999.250000 -999.250000
 1923.1460000 79.820503235 2.4231998920  -999.250000 -999.250000
 1923.2984000 79.984001160 2.4279999733  -999.250000 -999.250000
 1923.4508000 78.352203369 2.4316000938  -999.250000 -999.250000
 1923.6032000 77.751197815 2.4314999580  -999.250000 -999.250000
 1923.7556000 78.521697998 2.4288001060  -999.250000 -999.250000
 1923.9080000 79.595497131 2.4161999226  -999.250000 -999.250000
 1924.0604000 80.954597473 2.4103999138  -999.250000 -999.250000
 1924.2128000 81.727302551 2.4082999229  -999.250000 -999.250000
 1924.3652000 82.113601685 2.4107000828  -999.250000 -999.250000
 1924.5176000 82.405799866 2.4024000168  -999.250000 -999.250000
 1924.6700000 83.925102234 2.3872001171  -999.250000 -999.250000
 1924.8224000 84.844200134 2.3868000507  -999.250000 -999.250000
 1924.9748000 83.263496399 2.4022998810  -999.250000 -999.250000
 1925.1272000 81.174797058 2.4351999760  -999.250000 -999.250000
 1925.2796000 77.915702820 2.4581999779  -999.250000 -999.250000
 1925.4320000 75.372703552 2.4702000618  -999.250000 -999.250000
 1925.5844000 75.040901184 2.4563999176  -999.250000 -999.250000
 1925.7368000 75.664802551 2.4486999512  -999.250000 -999.250000
 1925.8892000 76.662597656 2.4326000214  -999.250000 -999.250000
 1926.0416000 78.247802734 2.4360001087  -999.250000 -999.250000
 1926.1940000 78.940902710 2.4305999279  -999.250000 -999.250000
 1926.3464000 79.564796448 2.4331998825  -999.250000 -999.250000
 1926.4988000 80.514801025 2.4191000462  -999.250000 -999.250000
 1926.6512000 81.420501709 2.4116001129  -999.250000 -999.250000
 1926.8036000 81.727302551 2.4005000591  -999.250000 -999.250000
 1926.9560000 82.079498291 2.3979001045  -999.250000 -999.250000
 1927.1084000 81.718101501 2.4010999203  -999.250000 -999.250000
 1927.2608000 80.518096924 2.4226999283  -999.250000 -999.250000
 1927.4132000 79.379501343 2.4407999516  -999.250000 -999.250000
 1927.5656000 79.059097290 2.4479999542  -999.250000 -999.250000
 1927.7180000 78.506797791 2.4519999027  -999.250000 -999.250000
 1927.8704000 78.528396606 2.4516000748  -999.250000 -999.250000
 1928.0228000 77.468101501 2.4539000988  -999.250000 -999.250000
 1928.1752000 76.298797607 2.4458999634  -999.250000 -999.250000
 1928.3276000 75.599998474 2.4389998913  -999.250000 -999.250000
 1928.4800000 75.623901367 2.4342000484  -999.250000 -999.250000
 1928.6324000 75.963699341 2.4286999702  -999.250000 -999.250000
 1928.7848000 76.139801025 2.4331998825  -999.250000 -999.250000
 1928.9372000 76.054603577 2.4386999607  -999.250000 -999.250000
 1929.0896000 76.871696472 2.4400999546  -999.250000 -999.250000
 1929.2420000 77.969398499 2.4275999069  -999.250000 -999.250000
 1929.3944000 79.668197632 2.4124000072  -999.250000 -999.250000
 1929.5468000 80.548797607 2.4144001007  -999.250000 -999.250000
 1929.6992000 79.768096924 2.4314000607  -999.250000 -999.250000
 1929.8516000 78.585197449 2.4449999332  -999.250000 -999.250000
 1930.0040000 77.720497131 2.4484000206  -999.250000 -999.250000
 1930.1564000 78.143302917 2.4396998882  -999.250000 -999.250000
 1930.3088000 80.260398865 2.4184999466  -999.250000 -999.250000
 1930.4612000 82.542098999 2.4075000286  -999.250000 -999.250000
 1930.6136000 83.813598633 2.4184000492  -999.250000 -999.250000
 1930.7660000 83.894203186 2.4472999573  -999.250000 -999.250000
 1930.9184000 82.200897217 2.4930000305  -999.250000 -999.250000
 1931.0708000 78.649902344 2.5350000858  -999.250000 -999.250000
 1931.2232000 76.524902344 2.5625998974  -999.250000 -999.250000
 1931.3756000 75.506797791 2.5557000637  -999.250000 -999.250000
 1931.5280000 75.647796631 2.5171000957  -999.250000 -999.250000
 1931.6804000 76.300003052 2.4683001041  -999.250000 -999.250000
 1931.8328000 76.238601685 2.4537999630  -999.250000 -999.250000
 1931.9852000 75.386398315 2.4493000507  -999.250000 -999.250000
 1932.1376000 75.227302551 2.4616000652  -999.250000 -999.250000
 1932.2900000 75.623901367 2.4553000927  -999.250000 -999.250000
 1932.4424000 75.970497131 2.4449999332  -999.250000 -999.250000
 1932.5948000 76.284103394 2.4435000420  -999.250000 -999.250000
