~Version Information Section
 VERS.      2.0         :CWLS LOG ASCII STANDARD - VERSION 2.0
 WRAP.      NO          :SINGLE LINE PER DEPTH STEP
 CREA.      8/24/2012 12:51:22
~Well Information Section
#MNEM.UNIT                      VALUE/NAME                 DESCRIPTION
#----.----     ----------------------------------   --------------------
 STRT .m          1517.0000000                         :START DEPTH
 STOP .m          3850.7012000                         :STOP DEPTH
 STEP .m            0.15240000                         :STEP VALUE
 NULL .            -999.250000                          :NULL VALUE
 SRVC .          SCH                                  :Service Company/Logging company
 DATE .          08/24/2012                           :LAS file Creation Date
 WELL .          KK1                                  :Well Name
 COMP .          NPK                                  :Company
 FLD  .          DY                                   :Field
 STATE.                                               :State
 COUNT.                                               :Country
 LOC  .                                               :Location
 LATI .          0                                    :Latitude/Northing
 LONG .          0                                    :Longitude/Easting
 PDAT .          RT                                   :Permanent Datum
 EPDAT.          0.0000                               :Elevation of Permanent Datum
 LGMEA.          RT                                   :Log Measured from
 KB   .          15.0000                              :KB Elevation
 UWI.            KK1                                  :UNIQUE WELL ID

#==================================================================
~Curve
DEPT .m                   : DEPTH
DT .us/ft                 : DT
RHOB           .g/cm3     : RHOB
SW  .m3/m3                : SW 
PHIE           .m3/m3     : PHIE

~Parameter
#==================================================================
~Ascii
 1517.0000000 56.686298370 1.3345999718  -999.250000 -999.250000
 1517.1524000 56.506801605 1.2330000401  -999.250000 -999.250000
 1517.3048000 56.808101654 1.1900000572  -999.250000 -999.250000
 1517.4572000 59.305400848 1.2180999517  -999.250000 -999.250000
 1517.6096000 54.801300049 1.3861000538  -999.250000 -999.250000
 1517.7620000 57.546600342 1.6066000462  -999.250000 -999.250000
 1517.9144000 57.496601105 1.7247999907  -999.250000 -999.250000
 1518.0668000 57.627399445 1.9069000483  -999.250000 -999.250000
 1518.2192000 60.674400330 1.8267999887  -999.250000 -999.250000
 1518.3716000 69.124900818 1.8644000292  -999.250000 -999.250000
 1518.5240000 68.386596680 2.0050001144  -999.250000 -999.250000
 1518.6764000 72.252197266 2.1672000885  -999.250000 -999.250000
 1518.8288000 71.054100037 2.2483000755  -999.250000 -999.250000
 1518.9812000 64.084503174 2.3127999306  -999.250000 -999.250000
 1519.1336000 71.065101624 2.3557000160  -999.250000 -999.250000
 1519.2860000 76.558403015 2.1400001049  -999.250000 -999.250000
 1519.4384000 84.735198975 1.8438999653  -999.250000 -999.250000
 1519.5908000 101.98560333 1.7769000530  -999.250000 -999.250000
 1519.7432000 107.33529663 1.8767999411  -999.250000 -999.250000
 1519.8956000 108.29530334 2.1810998917  -999.250000 -999.250000
 1520.0480000 104.91310120 2.2899999619  -999.250000 -999.250000
 1520.2004000 96.681602478 2.3215000629  -999.250000 -999.250000
 1520.3528000 93.788696289 2.3020000458  -999.250000 -999.250000
 1520.5052000 95.170600891 2.2909998894  -999.250000 -999.250000
 1520.6576000 97.551200867 2.2664999962  -999.250000 -999.250000
 1520.8100000 98.761802673 2.2300000191  -999.250000 -999.250000
 1520.9624000 105.67150116 2.2195000648  -999.250000 -999.250000
 1521.1148000 104.83879852 2.2167000771  -999.250000 -999.250000
 1521.2672000 108.03179932 2.2165999413  -999.250000 -999.250000
 1521.4196000 107.23310089 2.1245000362  -999.250000 -999.250000
 1521.5720000 109.32640076 1.8061000109  -999.250000 -999.250000
 1521.7244000 113.98030090 1.6856000423  -999.250000 -999.250000
 1521.8768000 126.63469696 1.6462999582  -999.250000 -999.250000
 1522.0292000 135.90049744 1.8608000278  -999.250000 -999.250000
 1522.1816000 143.50970459 2.1236999035  -999.250000 -999.250000
 1522.3340000 134.41610718 2.4393999577  -999.250000 -999.250000
 1522.4864000 119.25250244 2.4753999710  -999.250000 -999.250000
 1522.6388000 104.15499878 2.3822999001  -999.250000 -999.250000
 1522.7912000 93.293197632 2.3529999256  -999.250000 -999.250000
 1522.9436000 93.316001892 2.3143000603  -999.250000 -999.250000
 1523.0960000 94.824996948 2.3338999748  -999.250000 -999.250000
 1523.2484000 93.905799866 2.3489999771  -999.250000 -999.250000
 1523.4008000 95.384101868 2.3619000912  -999.250000 -999.250000
 1523.5532000 95.778297424 2.3643999100  -999.250000 -999.250000
 1523.7056000 94.840896606 2.3557000160  -999.250000 -999.250000
 1523.8580000 95.550102234 2.3382000923  -999.250000 -999.250000
 1524.0104000 97.596603394 2.3097000122  -999.250000 -999.250000
 1524.1628000 97.590896606 2.3002998829  -999.250000 -999.250000
 1524.3152000 98.126098633 2.3045001030  -999.250000 -999.250000
 1524.4676000 97.752197266 2.3018000126  -999.250000 -999.250000
 1524.6200000 97.263801575 2.2867000103  -999.250000 -999.250000
 1524.7724000 99.496597290 2.2597000599  -999.250000 -999.250000
 1524.9248000 99.665000916 2.2423000336  -999.250000 -999.250000
 1525.0772000 102.79109955 2.2344999313  -999.250000 -999.250000
 1525.2296000 105.29759979 2.2400000095  -999.250000 -999.250000
 1525.3820000 103.70210266 2.2363998890  -999.250000 -999.250000
 1525.5344000 100.79180145 2.1226999760  -999.250000 -999.250000
 1525.6868000 98.540298462 2.0518999100  -999.250000 -999.250000
 1525.8392000 106.19740295 1.9941999912  -999.250000 -999.250000
 1525.9916000 100.91159821 1.8274999857  -999.250000 -999.250000
 1526.1440000 104.77590179 1.6993999481  -999.250000 -999.250000
 1526.2964000 117.77239990 1.7086999416  -999.250000 -999.250000
 1526.4488000 113.16349792 1.9417999983  -999.250000 -999.250000
 1526.6012000 110.86329651 2.3122000694  -999.250000 -999.250000
 1526.7536000 103.56590271 2.4486000538  -999.250000 -999.250000
 1526.9060000 84.404800415 2.4635999203  -999.250000 -999.250000
 1527.0584000 71.315803528 2.5251998901  -999.250000 -999.250000
 1527.2108000 68.472396851 2.6633000374  -999.250000 -999.250000
 1527.3632000 63.907901764 2.6805999279  -999.250000 -999.250000
 1527.5156000 62.711399078 2.6433000565  -999.250000 -999.250000
 1527.6680000 63.608001709 2.5771999359  -999.250000 -999.250000
 1527.8204000 64.642303467 2.5411000252  -999.250000 -999.250000
 1527.9728000 67.994300842 2.5394001007  -999.250000 -999.250000
 1528.1252000 68.637496948 2.5336000919  -999.250000 -999.250000
 1528.2776000 69.190902710 2.5309998989  -999.250000 -999.250000
 1528.4300000 69.603302002 2.5736000538  -999.250000 -999.250000
 1528.5824000 67.572700500 2.6168999672  -999.250000 -999.250000
 1528.7348000 67.008903503 2.6366999149  -999.250000 -999.250000
 1528.8872000 64.256698608 2.6649000645  -999.250000 -999.250000
 1529.0396000 62.402400970 2.7342998981  -999.250000 -999.250000
 1529.1920000 63.649898529 2.8171000481  -999.250000 -999.250000
 1529.3444000 61.562500000 2.8670001030  -999.250000 -999.250000
 1529.4968000 60.930599213 2.8640999794  -999.250000 -999.250000
 1529.6492000 59.115699768 2.8310999870  -999.250000 -999.250000
 1529.8016000 56.791099548 2.7967998981  -999.250000 -999.250000
 1529.9540000 59.488700867 2.7100000381  -999.250000 -999.250000
 1530.1064000 61.061698914 2.6131999493  -999.250000 -999.250000
 1530.2588000 66.211502075 2.5511999130  -999.250000 -999.250000
 1530.4112000 69.154602051 2.5380001068  -999.250000 -999.250000
 1530.5636000 70.142303467 2.5264999866  -999.250000 -999.250000
 1530.7160000 73.521697998 2.4995000362  -999.250000 -999.250000
 1530.8684000 74.424896240 2.5018000603  -999.250000 -999.250000
 1531.0208000 73.270301819 2.5511000156  -999.250000 -999.250000
 1531.1732000 71.397598267 2.6038999557  -999.250000 -999.250000
 1531.3256000 69.870399475 2.6057000160  -999.250000 -999.250000
 1531.4780000 68.113601685 2.5797998905  -999.250000 -999.250000
 1531.6304000 68.433097839 2.5734999180  -999.250000 -999.250000
 1531.7828000 70.471801758 2.5522999763  -999.250000 -999.250000
 1531.9352000 73.500000000 2.5457999706  -999.250000 -999.250000
 1532.0876000 73.527297974 2.5557999611  -999.250000 -999.250000
 1532.2400000 73.913597107 2.5724999905  -999.250000 -999.250000
 1532.3924000 73.844100952 2.4883000851  -999.250000 -999.250000
 1532.5448000 70.367103577 2.1305000782  -999.250000 -999.250000
 1532.6972000 71.954597473 2.0062000751  -999.250000 -999.250000
 1532.8496000 91.586196899 1.9859000444  -999.250000 -999.250000
 1533.0020000 107.44799805 2.2493000031  -999.250000 -999.250000
 1533.1544000 112.27850342 2.3268001080  -999.250000 -999.250000
 1533.3068000 112.24109650 2.4312999249  -999.250000 -999.250000
 1533.4592000 95.602096558 2.5529000759  -999.250000 -999.250000
 1533.6116000 74.699600220 2.7330000401  -999.250000 -999.250000
 1533.7640000 68.205398560 2.6912999153  -999.250000 -999.250000
 1533.9164000 63.332801819 2.6052999496  -999.250000 -999.250000
 1534.0688000 61.346900940 2.5536000729  -999.250000 -999.250000
 1534.2212000 65.632003784 2.5230998993  -999.250000 -999.250000
 1534.3736000 68.946701050 2.5267999172  -999.250000 -999.250000
 1534.5260000 70.912498474 2.5394001007  -999.250000 -999.250000
 1534.6784000 70.655899048 2.5339999199  -999.250000 -999.250000
 1534.8308000 74.194396973 2.4809000492  -999.250000 -999.250000
 1534.9832000 74.956901550 2.4781999588  -999.250000 -999.250000
 1535.1356000 77.192100525 2.5364999771  -999.250000 -999.250000
 1535.2880000 78.221397400 2.6442999840  -999.250000 -999.250000
 1535.4404000 74.792900085 2.7044999599  -999.250000 -999.250000
 1535.5928000 70.484001160 2.7067000866  -999.250000 -999.250000
 1535.7452000 68.855697632 2.6968998909  -999.250000 -999.250000
