~Version Information Section
 VERS.      2.0         :CWLS LOG ASCII STANDARD - VERSION 2.0
 WRAP.      NO          :SINGLE LINE PER DEPTH STEP
 CREA.      8/24/2012 12:51:22
~Well Information Section
#MNEM.UNIT                      VALUE/NAME                 DESCRIPTION
#----.----     ----------------------------------   --------------------
 STRT .m          1517.0000000                         :START DEPTH
 STOP .m          3850.7012000                         :STOP DEPTH
 STEP .m            0.15240000                         :STEP VALUE
 NULL .            -999.250000                          :NULL VALUE
 SRVC .          SCH                                  :Service Company/Logging company
 DATE .          08/24/2012                           :LAS file Creation Date
 WELL .          KK1                                  :Well Name
 COMP .          NPK                                  :Company
 FLD  .          DY                                   :Field
 STATE.                                               :State
 COUNT.                                               :Country
 LOC  .                                               :Location
 LATI .          0                                    :Latitude/Northing
 LONG .          0                                    :Longitude/Easting
 PDAT .          RT                                   :Permanent Datum
 EPDAT.          0.0000                               :Elevation of Permanent Datum
 LGMEA.          RT                                   :Log Measured from
 KB   .          15.0000                              :KB Elevation
 UWI.            KK1                                  :UNIQUE WELL ID

#==================================================================
~Curve
DEPT .m                   : DEPTH
DT .us/ft                 : DT
RHOB           .g/cm3     : RHOB
SW  .m3/m3                : SW 
PHIE           .m3/m3     : PHIE

~Parameter
#==================================================================
~Ascii
# ...
 3482.3504000 62.095199585 2.6591999531  -999.250000 -999.250000
 3482.5028000 58.137001038 2.6614999771  -999.250000 -999.250000
 3482.6552000 56.100299835 2.6847000122  -999.250000 -999.250000
 3482.8076000 53.709800720 2.7026000023  -999.250000 -999.250000
 3482.9600000 53.136199951 2.7140998840  -999.250000 -999.250000
 3483.1124000 53.360000610 2.7193999290  -999.250000 -999.250000
 3483.2648000 53.405101776 2.7316000462  -999.250000 -999.250000
 3483.4172000 53.034000397 2.7276999950  -999.250000 -999.250000
 3483.5696000 53.157501221 2.7098999023  -999.250000 -999.250000
 3483.7220000 53.096401215 2.6805999279  -999.250000 -999.250000
 3483.8744000 52.659900665 2.6668999195  -999.250000 -999.250000
 3484.0268000 52.754501343 2.6709001064  -999.250000 -999.250000
 3484.1792000 52.902198792 2.6891000271  -999.250000 -999.250000
 3484.3316000 53.259399414 2.7009000778  -999.250000 -999.250000
 3484.4840000 53.610298157 2.7009000778  -999.250000 -999.250000
 3484.6364000 53.633701324 2.6921999454  -999.250000 -999.250000
 3484.7888000 53.729999542 2.6803998947  -999.250000 -999.250000
 3484.9412000 53.650398254 2.6696999073  -999.250000 -999.250000
 3485.0936000 53.409099579 2.6672000885  -999.250000 -999.250000
 3485.2460000 53.213401794 2.6703999043  -999.250000 -999.250000
 3485.3984000 53.036300659 2.6765999794  -999.250000 -999.250000
 3485.5508000 52.764400482 2.6856999397  -999.250000 -999.250000
 3485.7032000 53.038501740 2.7004001141  -999.250000 -999.250000
 3485.8556000 53.423500061 2.7144000530  -999.250000 -999.250000
 3486.0080000 52.584999084 2.7179999352  -999.250000 -999.250000
 3486.1604000 52.663600922 2.7156999111  -999.250000 -999.250000
 3486.3128000 53.077701569 2.7244000435  -999.250000 -999.250000
 3486.4652000 52.860000610 2.7235000134  -999.250000 -999.250000
 3486.6176000 53.551399231 2.7204000950  -999.250000 -999.250000
 3486.7700000 53.905899048 2.7084999084  -999.250000 -999.250000
 3486.9224000 53.152599335 2.7174000740  -999.250000 -999.250000
 3487.0748000 52.225700378 2.7249999046  -999.250000 -999.250000
 3487.2272000 52.158599854 2.7251999378  -999.250000 -999.250000
 3487.3796000 53.532901764 2.7158000469  -999.250000 -999.250000
 3487.5320000 55.472999573 2.7039999962  -999.250000 -999.250000
 3487.6844000 56.512699127 2.7012000084  -999.250000 -999.250000
 3487.8368000 56.663700104 2.6965999603  -999.250000 -999.250000
 3487.9892000 55.558601379 2.6984000206  -999.250000 -999.250000
 3488.1416000 54.726398468 2.6977999210  -999.250000 -999.250000
 3488.2940000 54.783901215 2.7051000595  -999.250000 -999.250000
 3488.4464000 54.603401184 2.7153000832  -999.250000 -999.250000
 3488.5988000 53.179798126 2.7163000107  -999.250000 -999.250000
 3488.7512000 51.924098969 2.7149000168  -999.250000 -999.250000
 3488.9036000 51.541999817 2.7116999626  -999.250000 -999.250000
 3489.0560000 51.902301788 2.7142000198  -999.250000 -999.250000
 3489.2084000 52.856998444 2.7083001137  -999.250000 -999.250000
 3489.3608000 53.844799042 2.6984999180  -999.250000 -999.250000
 3489.5132000 53.841999054 2.6844000816  -999.250000 -999.250000
 3489.6656000 54.147098541 2.6696999073  -999.250000 -999.250000
 3489.8180000 54.510398865 2.6514999866  -999.250000 -999.250000
 3489.9704000 54.810398102 2.6301999092  -999.250000 -999.250000
 3490.1228000 55.036800385 2.6180999279  -999.250000 -999.250000
 3490.2752000 55.063201904 2.6201999187  -999.250000 -999.250000
 3490.4276000 54.908000946 2.6370000839  -999.250000 -999.250000
 3490.5800000 54.621200562 2.6556999683  -999.250000 -999.250000
 3490.7324000 53.977001190 2.6721999645  -999.250000 -999.250000
 3490.8848000 53.305198669 2.6865999699  -999.250000 -999.250000
 3491.0372000 53.216098785 2.6914999485  -999.250000 -999.250000
 3491.1896000 52.972999573 2.6942999363  -999.250000 -999.250000
 3491.3420000 53.098999023 2.6895000935  -999.250000 -999.250000
 3491.4944000 52.884498596 2.6944000721  -999.250000 -999.250000
 3491.6468000 52.544799805 2.6953999996  -999.250000 -999.250000
 3491.7992000 52.615898132 2.6993000507  -999.250000 -999.250000
 3491.9516000 52.860099792 2.6977000237  -999.250000 -999.250000
 3492.1040000 53.880699158 2.6919000149  -999.250000 -999.250000
 3492.2564000 54.678100586 2.6884000301  -999.250000 -999.250000
 3492.4088000 53.898498535 2.6919999123  -999.250000 -999.250000
 3492.5612000 53.556400299 2.7016999722  -999.250000 -999.250000
 3492.7136000 53.493801117 2.7098000050  -999.250000 -999.250000
 3492.8660000 53.684700012 2.7116000652  -999.250000 -999.250000
 3493.0184000 54.507499695 2.7047998905  -999.250000 -999.250000
 3493.1708000 55.302398682 2.6914999485  -999.250000 -999.250000
 3493.3232000 55.970901489 2.6821000576  -999.250000 -999.250000
 3493.4756000 55.975700378 2.6874001026  -999.250000 -999.250000
 3493.6280000 56.096599579 2.6961998940  -999.250000 -999.250000
 3493.7804000 55.684700012 2.7058000565  -999.250000 -999.250000
 3493.9328000 55.611698151 2.7130000591  -999.250000 -999.250000
 3494.0852000 55.616699219 2.7037000656  -999.250000 -999.250000
 3494.2376000 55.092998505 2.6902999878  -999.250000 -999.250000
 3494.3900000 54.449298859 2.6740999222  -999.250000 -999.250000
 3494.5424000 54.030601501 2.6805000305  -999.250000 -999.250000
 3494.6948000 53.433200836 2.6870000362  -999.250000 -999.250000
 3494.8472000 52.706298828 2.6925001144  -999.250000 -999.250000
 3494.9996000 52.751300812 2.6974999905  -999.250000 -999.250000
 3495.1520000 53.065799713 2.7014999390  -999.250000 -999.250000
 3495.3044000 53.023799896 2.7095000744  -999.250000 -999.250000
 3495.4568000 52.970699310 2.7097001076  -999.250000 -999.250000
 3495.6092000 52.883701324 2.7056999207  -999.250000 -999.250000
 3495.7616000 52.798698425 2.6956000328  -999.250000 -999.250000
 3495.9140000 52.914100647 2.6881000996  -999.250000 -999.250000
 3496.0664000 53.293498993 2.6933999062  -999.250000 -999.250000
 3496.2188000 53.555999756 2.6986999512  -999.250000 -999.250000
 3496.3712000 53.900398254 2.7093000412  -999.250000 -999.250000
 3496.5236000 54.404598236 2.7079999447  -999.250000 -999.250000
 3496.6760000 54.420101166 2.7072000504  -999.250000 -999.250000
 3496.8284000 54.232398987 2.6965999603  -999.250000 -999.250000
 3496.9808000 54.416198730 2.6884999275  -999.250000 -999.250000
 3497.1332000 54.513301849 2.6865999699  -999.250000 -999.250000
 3497.2856000 54.343898773 2.6912999153  -999.250000 -999.250000
 3497.4380000 53.830699921 2.7039000988  -999.250000 -999.250000
 3497.5904000 53.499500275 2.7083001137  -999.250000 -999.250000
 3497.7428000 53.455699921 2.7126998901  -999.250000 -999.250000
 3497.8952000 53.444599152 2.7121000290  -999.250000 -999.250000
 3498.0476000 53.242099762 2.7179000378  -999.250000 -999.250000
 3498.2000000 52.803298950 2.7139999866  -999.250000 -999.250000
 3498.3524000 52.601299286 2.7067000866  -999.250000 -999.250000
 3498.5048000 52.484199524 2.6886000633  -999.250000 -999.250000
 3498.6572000 52.866901398 2.6756999493  -999.250000 -999.250000
 3498.8096000 53.274299622 2.6726000309  -999.250000 -999.250000
 3498.9620000 53.075000763 2.6724998951  -999.250000 -999.250000
 3499.1144000 52.624599457 2.6789000034  -999.250000 -999.250000
 3499.2668000 52.319599152 2.6761999130  -999.250000 -999.250000
 3499.4192000 52.113399506 2.6777000427  -999.250000 -999.250000
 3499.5716000 52.252601624 2.6770999432  -999.250000 -999.250000
 3499.7240000 52.466300964 2.6865000725  -999.250000 -999.250000
 3499.8764000 52.225700378 2.6972999573  -999.250000 -999.250000
 3500.0288000 51.983798981 2.7070999146  -999.250000 -999.250000
 3500.1812000 52.287101746 2.7058999538  -999.250000 -999.250000
 3500.3336000 52.774501801 2.7049000263  -999.250000 -999.250000
 3500.4860000 53.020500183 2.7028999329  -999.250000 -999.250000
 3500.6384000 53.003501892 2.7037000656  -999.250000 -999.250000
 3500.7908000 52.708000183 2.6993999481  -999.250000 -999.250000
 3500.9432000 52.279499054 2.6979999542  -999.250000 -999.250000
 3501.0956000 52.085201263 2.6937999725  -999.250000 -999.250000
