~Version Information Section
 VERS.      2.0         :CWLS LOG ASCII STANDARD - VERSION 2.0
 WRAP.      NO          :SINGLE LINE PER DEPTH STEP
 CREA.      8/24/2012 12:51:22
~Well Information Section
#MNEM.UNIT                      VALUE/NAME                 DESCRIPTION
#----.----     ----------------------------------   --------------------
 STRT .m          1517.0000000                         :START DEPTH
 STOP .m          3850.7012000                         :STOP DEPTH
 STEP .m            0.15240000                         :STEP VALUE
 NULL .            -999.250000                          :NULL VALUE
 SRVC .          SCH                                  :Service Company/Logging company
 DATE .          08/24/2012                           :LAS file Creation Date
 WELL .          KK1                                  :Well Name
 COMP .          NPK                                  :Company
 FLD  .          DY                                   :Field
 STATE.                                               :State
 COUNT.                                               :Country
 LOC  .                                               :Location
 LATI .          0                                    :Latitude/Northing
 LONG .          0                                    :Longitude/Easting
 PDAT .          RT                                   :Permanent Datum
 EPDAT.          0.0000                               :Elevation of Permanent Datum
 LGMEA.          RT                                   :Log Measured from
 KB   .          15.0000                              :KB Elevation
 UWI.            KK1                                  :UNIQUE WELL ID

#==================================================================
~Curve
DEPT .m                   : DEPTH
DT .us/ft                 : DT
RHOB           .g/cm3     : RHOB
SW  .m3/m3                : SW 
PHIE           .m3/m3     : PHIE

~Parameter
#==================================================================
~Ascii
# ...
 2310.6992000 67.213699341 2.5855000019  -999.250000 -999.250000
 2310.8516000 67.365898132 2.5926001072  -999.250000 -999.250000
 2311.0040000 66.879501343 2.5896999836  -999.250000 -999.250000
 2311.1564000 66.620498657 2.5817000866  -999.250000 -999.250000
 2311.3088000 66.913696289 2.5701999664  -999.250000 -999.250000
 2311.4612000 67.106796265 2.5680000782  -999.250000 -999.250000
 2311.6136000 67.217102051 2.5722000599  -999.250000 -999.250000
 2311.7660000 67.439796448 2.5732998848  -999.250000 -999.250000
 2311.9184000 67.269302368 2.5797998905  -999.250000 -999.250000
 2312.0708000 66.832901001 2.5948998928  -999.250000 -999.250000
 2312.2232000 66.589797974 2.6057000160  -999.250000 -999.250000
 2312.3756000 66.412498474 2.6124999523  -999.250000 -999.250000
 2312.5280000 65.923896790 2.6168999672  -999.250000 -999.250000
 2312.6804000 66.205596924 2.6199998856  -999.250000 -999.250000
 2312.8328000 65.559097290 2.6105999947  -999.250000 -999.250000
 2312.9852000 65.040901184 2.6012001038  -999.250000 -999.250000
 2313.1376000 65.630699158 2.5813999176  -999.250000 -999.250000
 2313.2900000 66.080703735 2.5710000992  -999.250000 -999.250000
 2313.4424000 66.537498474 2.5657999516  -999.250000 -999.250000
 2313.5948000 67.060203552 2.5683000088  -999.250000 -999.250000
 2313.7472000 67.193199158 2.5645000935  -999.250000 -999.250000
 2313.8996000 67.082901001 2.5631999969  -999.250000 -999.250000
 2314.0520000 66.860198975 2.5504000187  -999.250000 -999.250000
 2314.2044000 66.986396790 2.5466001034  -999.250000 -999.250000
 2314.3568000 66.861396790 2.5443999767  -999.250000 -999.250000
 2314.5092000 67.720497131 2.5418999195  -999.250000 -999.250000
 2314.6616000 68.006797791 2.5427000523  -999.250000 -999.250000
 2314.8140000 68.076103210 2.5350000858  -999.250000 -999.250000
 2314.9664000 67.794403076 2.5413999557  -999.250000 -999.250000
 2315.1188000 68.427299500 2.5432000160  -999.250000 -999.250000
 2315.2712000 68.810203552 2.5527000427  -999.250000 -999.250000
 2315.4236000 68.912498474 2.5690000057  -999.250000 -999.250000
 2315.5760000 68.427299500 2.5683999062  -999.250000 -999.250000
 2315.7284000 68.793197632 2.5666000843  -999.250000 -999.250000
 2315.8808000 68.686302185 2.5508000851  -999.250000 -999.250000
 2316.0332000 68.479499817 2.5446000099  -999.250000 -999.250000
 2316.1856000 68.189796448 2.5427000523  -999.250000 -999.250000
 2316.3380000 68.060203552 2.5504999161  -999.250000 -999.250000
 2316.4904000 68.189796448 2.5452001095  -999.250000 -999.250000
 2316.6428000 68.067001343 2.5436000824  -999.250000 -999.250000
 2316.7952000 68.286300659 2.5506999493  -999.250000 -999.250000
 2316.9476000 68.099998474 2.5573999882  -999.250000 -999.250000
 2317.1000000 68.065902710 2.5666000843  -999.250000 -999.250000
 2317.2524000 67.606796265 2.5745999813  -999.250000 -999.250000
 2317.4048000 67.693199158 2.5915999413  -999.250000 -999.250000
 2317.5572000 67.637496948 2.5857999325  -999.250000 -999.250000
 2317.7096000 68.132896423 2.5731999874  -999.250000 -999.250000
 2317.8620000 67.886299133 2.5713000298  -999.250000 -999.250000
 2318.0144000 67.693199158 2.5783998966  -999.250000 -999.250000
 2318.1668000 67.599998474 2.5690000057  -999.250000 -999.250000
 2318.3192000 67.593200684 2.5599999428  -999.250000 -999.250000
 2318.4716000 67.513603210 2.5539999008  -999.250000 -999.250000
 2318.6240000 67.744300842 2.5704998970  -999.250000 -999.250000
 2318.7764000 68.380699158 2.5755000114  -999.250000 -999.250000
 2318.9288000 68.827301025 2.5748000145  -999.250000 -999.250000
 2319.0812000 69.179496765 2.5776000023  -999.250000 -999.250000
 2319.2336000 68.900001526 2.5845999718  -999.250000 -999.250000
 2319.3860000 68.879501343 2.5875000954  -999.250000 -999.250000
 2319.5384000 68.586303711 2.5787999630  -999.250000 -999.250000
 2319.6908000 68.441001892 2.5611999035  -999.250000 -999.250000
 2319.8432000 69.000000000 2.5473999977  -999.250000 -999.250000
 2319.9956000 68.993202209 2.5578000546  -999.250000 -999.250000
 2320.1480000 68.862503052 2.5664999485  -999.250000 -999.250000
 2320.3004000 68.319297791 2.5752999783  -999.250000 -999.250000
 2320.4528000 67.913597107 2.5701000690  -999.250000 -999.250000
 2320.6052000 68.062500000 2.5741000175  -999.250000 -999.250000
 2320.7576000 67.556800842 2.5662999153  -999.250000 -999.250000
 2320.9100000 67.663696289 2.5664999485  -999.250000 -999.250000
 2321.0624000 67.832901001 2.5525000095  -999.250000 -999.250000
 2321.2148000 67.606796265 2.5518999100  -999.250000 -999.250000
 2321.3672000 67.703399658 2.5664000511  -999.250000 -999.250000
 2321.5196000 67.760200500 2.5789000988  -999.250000 -999.250000
 2321.6720000 67.940902710 2.5896000862  -999.250000 -999.250000
 2321.8244000 68.513603210 2.5780000687  -999.250000 -999.250000
 2321.9768000 68.713699341 2.5690999031  -999.250000 -999.250000
 2322.1292000 68.954597473 2.5545001030  -999.250000 -999.250000
 2322.2816000 69.713699341 2.5557999611  -999.250000 -999.250000
 2322.4340000 69.896598816 2.5550999641  -999.250000 -999.250000
 2322.5864000 69.839797974 2.5624001026  -999.250000 -999.250000
 2322.7388000 69.713699341 2.5578000546  -999.250000 -999.250000
 2322.8912000 69.852203369 2.5543999672  -999.250000 -999.250000
 2323.0436000 69.206802368 2.5555999279  -999.250000 -999.250000
 2323.1960000 69.300003052 2.5585999489  -999.250000 -999.250000
 2323.3484000 69.265899658 2.5671999454  -999.250000 -999.250000
 2323.5008000 68.806800842 2.5727000237  -999.250000 -999.250000
 2323.6532000 68.862503052 2.5771999359  -999.250000 -999.250000
 2323.8056000 68.353401184 2.5680000782  -999.250000 -999.250000
 2323.9580000 68.410202026 2.5531001091  -999.250000 -999.250000
 2324.1104000 68.567100525 2.5446999073  -999.250000 -999.250000
 2324.2628000 68.806800842 2.5566999912  -999.250000 -999.250000
 2324.4152000 68.886299133 2.5567998886  -999.250000 -999.250000
 2324.5676000 68.703399658 2.5618999004  -999.250000 -999.250000
 2324.7200000 68.702201843 2.5555000305  -999.250000 -999.250000
 2324.8724000 68.053398132 2.5587000847  -999.250000 -999.250000
 2325.0248000 68.103401184 2.5678000450  -999.250000 -999.250000
 2325.1772000 68.132896423 2.5729000568  -999.250000 -999.250000
 2325.3296000 67.900001526 2.5692000389  -999.250000 -999.250000
 2325.4820000 67.886398315 2.5706000328  -999.250000 -999.250000
 2325.6344000 67.679496765 2.5780999660  -999.250000 -999.250000
 2325.7868000 67.393203735 2.5818998814  -999.250000 -999.250000
 2325.9392000 67.303398132 2.5778999329  -999.250000 -999.250000
 2326.0916000 67.367103577 2.5755999088  -999.250000 -999.250000
 2326.2440000 67.599998474 2.5761001110  -999.250000 -999.250000
 2326.3964000 67.606796265 2.5687000751  -999.250000 -999.250000
 2326.5488000 67.710197449 2.5659999847  -999.250000 -999.250000
 2326.7012000 67.870498657 2.5748999119  -999.250000 -999.250000
 2326.8536000 68.153396606 2.5836000443  -999.250000 -999.250000
 2327.0060000 68.199996948 2.5857000351  -999.250000 -999.250000
 2327.1584000 68.193199158 2.5804998875  -999.250000 -999.250000
 2327.3108000 68.099998474 2.5704998970  -999.250000 -999.250000
 2327.4632000 68.134101868 2.5673999786  -999.250000 -999.250000
 2327.6156000 68.610198975 2.5660998821  -999.250000 -999.250000
 2327.7680000 68.753402710 2.5590999126  -999.250000 -999.250000
 2327.9204000 68.813697815 2.5511999130  -999.250000 -999.250000
 2328.0728000 69.006797791 2.5420000553  -999.250000 -999.250000
 2328.2252000 69.096603394 2.5485999584  -999.250000 -999.250000
 2328.3776000 69.050003052 2.5499999523  -999.250000 -999.250000
 2328.5300000 69.012496948 2.5508999825  -999.250000 -999.250000
 2328.6824000 68.547798157 2.5617001057  -999.250000 -999.250000
 2328.8348000 69.182998657 2.5806000233  -999.250000 -999.250000
 2328.9872000 68.902198792 2.5855998993  -999.250000 -999.250000
 2329.1396000 68.318199158 2.5768001080  -999.250000 -999.250000
 2329.2920000 69.205596924 2.5664999485  -999.250000 -999.250000
 2329.4444000 68.640998840 2.5680999756  -999.250000 -999.250000
