~Version Information Section
 VERS.      2.0         :CWLS LOG ASCII STANDARD - VERSION 2.0
 WRAP.      NO          :SINGLE LINE PER DEPTH STEP
 CREA.      8/24/2012 12:51:22
~Well Information Section
#MNEM.UNIT                      VALUE/NAME                 DESCRIPTION
#----.----     ----------------------------------   --------------------
 STRT .m          1517.0000000                         :START DEPTH
 STOP .m          3850.7012000                         :STOP DEPTH
 STEP .m            0.15240000                         :STEP VALUE
 NULL .            -999.250000                          :NULL VALUE
 SRVC .          SCH                                  :Service Company/Logging company
 DATE .          08/24/2012                           :LAS file Creation Date
 WELL .          KK1                                  :Well Name
 COMP .          NPK                                  :Company
 FLD  .          DY                                   :Field
 STATE.                                               :State
 COUNT.                                               :Country
 LOC  .                                               :Location
 LATI .          0                                    :Latitude/Northing
 LONG .          0                                    :Longitude/Easting
 PDAT .          RT                                   :Permanent Datum
 EPDAT.          0.0000                               :Elevation of Permanent Datum
 LGMEA.          RT                                   :Log Measured from
 KB   .          15.0000                              :KB Elevation
 UWI.            KK1                                  :UNIQUE WELL ID

#==================================================================
~Curve
DEPT .m                   : DEPTH
DT .us/ft                 : DT
RHOB           .g/cm3     : RHOB
SW  .m3/m3                : SW 
PHIE           .m3/m3     : PHIE

~Parameter
#==================================================================
~Ascii
# ...
 2499.6752000 65.835899353 2.6191000938  -999.250000 -999.250000
 2499.8276000 65.858497620 2.6192998886  -999.250000 -999.250000
 2499.9800000 65.569900513 2.6171998978  -999.250000 -999.250000
 2500.1324000 65.128898621 2.6136000156  -999.250000 -999.250000
 2500.2848000 64.613800049 2.6110000610  -999.250000 -999.250000
 2500.4372000 64.078903198 2.6117999554  -999.250000 -999.250000
 2500.5896000 63.552398682 2.6159999371  -999.250000 -999.250000
 2500.7420000 63.084400177 2.6210000515  -999.250000 -999.250000
 2500.8944000 62.709800720 2.6250998974  -999.250000 -999.250000
 2501.0468000 62.440498352 2.6277999878  -999.250000 -999.250000
 2501.1992000 62.291900635 2.6293001175  -999.250000 -999.250000
 2501.3516000 62.261901855 2.6289000511  -999.250000 -999.250000
 2501.5040000 62.387500763 2.6261000633  -999.250000 -999.250000
 2501.6564000 62.746398926 2.6214001179  -999.250000 -999.250000
 2501.8088000 63.293098450 2.6164000034  -999.250000 -999.250000
 2501.9612000 63.868598938 2.6133999825  -999.250000 -999.250000
 2502.1136000 64.275703430 2.6126000881  -999.250000 -999.250000
 2502.2660000 64.144996643 2.6133000851  -999.250000 -999.250000
 2502.4184000 63.337699890 2.6138000488  -999.250000 -999.250000
 2502.5708000 62.351898193 2.6136000156  -999.250000 -999.250000
 2502.7232000 61.949199677 2.6143000126  -999.250000 -999.250000
 2502.8756000 62.469001770 2.6177999973  -999.250000 -999.250000
 2503.0280000 63.212699890 2.6236999035  -999.250000 -999.250000
 2503.1804000 63.308399200 2.6298999786  -999.250000 -999.250000
 2503.3328000 62.748401642 2.6345999241  -999.250000 -999.250000
 2503.4852000 61.964500427 2.6366999149  -999.250000 -999.250000
 2503.6376000 61.494598389 2.6370000839  -999.250000 -999.250000
 2503.7900000 61.609699249 2.6354999542  -999.250000 -999.250000
 2503.9424000 61.962100983 2.6333000660  -999.250000 -999.250000
 2504.0948000 62.364498138 2.6314001083  -999.250000 -999.250000
 2504.2472000 62.684200287 2.6303999424  -999.250000 -999.250000
 2504.3996000 62.873798370 2.6298999786  -999.250000 -999.250000
 2504.5520000 62.997600555 2.6291999817  -999.250000 -999.250000
 2504.7044000 63.092098236 2.6278998852  -999.250000 -999.250000
 2504.8568000 63.128898621 2.6266999245  -999.250000 -999.250000
 2505.0092000 62.953998566 2.6268000603  -999.250000 -999.250000
 2505.1616000 62.493698120 2.6298999786  -999.250000 -999.250000
 2505.3140000 61.890899658 2.6361000538  -999.250000 -999.250000
 2505.4664000 61.387500763 2.6431000233  -999.250000 -999.250000
 2505.6188000 61.138000488 2.6477000713  -999.250000 -999.250000
 2505.7712000 61.130401611 2.6477000713  -999.250000 -999.250000
 2505.9236000 61.293300629 2.6447000504  -999.250000 -999.250000
 2506.0760000 61.607799530 2.6405999660  -999.250000 -999.250000
 2506.2284000 61.965698242 2.6364998817  -999.250000 -999.250000
 2506.3808000 62.227401733 2.6319999695  -999.250000 -999.250000
 2506.5332000 62.376201630 2.6277000904  -999.250000 -999.250000
 2506.6856000 62.454299927 2.6256999969  -999.250000 -999.250000
 2506.8380000 62.617298126 2.6266999245  -999.250000 -999.250000
 2506.9904000 63.009998322 2.6303000450  -999.250000 -999.250000
 2507.1428000 63.574600220 2.6345000267  -999.250000 -999.250000
 2507.2952000 64.190902710 2.6377999783  -999.250000 -999.250000
 2507.4476000 64.650001526 2.6394999027  -999.250000 -999.250000
 2507.6000000 64.597801208 2.6394000053  -999.250000 -999.250000
 2507.7524000 64.109001160 2.6382999420  -999.250000 -999.250000
 2507.9048000 63.611999512 2.6370999813  -999.250000 -999.250000
 2508.0572000 63.378501892 2.6364998817  -999.250000 -999.250000
 2508.2096000 63.293098450 2.6363999844  -999.250000 -999.250000
 2508.3620000 63.170799255 2.6356999874  -999.250000 -999.250000
 2508.5144000 63.067798615 2.6335000992  -999.250000 -999.250000
 2508.6668000 63.180999756 2.6300001144  -999.250000 -999.250000
 2508.8192000 63.490798950 2.6266000271  -999.250000 -999.250000
 2508.9716000 63.764499664 2.6245999336  -999.250000 -999.250000
 2509.1240000 63.846099854 2.6238000393  -999.250000 -999.250000
 2509.2764000 63.662700653 2.6243999004  -999.250000 -999.250000
 2509.4288000 63.377399445 2.6266999245  -999.250000 -999.250000
 2509.5812000 63.132099152 2.6308999062  -999.250000 -999.250000
 2509.7336000 62.971900940 2.6359000206  -999.250000 -999.250000
 2509.8860000 62.953300476 2.6398999691  -999.250000 -999.250000
 2510.0384000 62.955001831 2.6414999962  -999.250000 -999.250000
 2510.1908000 62.932800293 2.6398000717  -999.250000 -999.250000
 2510.3432000 62.941898346 2.6356999874  -999.250000 -999.250000
 2510.4956000 63.009601593 2.6308999062  -999.250000 -999.250000
 2510.6480000 63.063701630 2.6271998882  -999.250000 -999.250000
 2510.8004000 63.095100403 2.6256000996  -999.250000 -999.250000
 2510.9528000 63.153800964 2.6261999607  -999.250000 -999.250000
 2511.1052000 63.247299194 2.6280999184  -999.250000 -999.250000
 2511.2576000 63.357299805 2.6305999756  -999.250000 -999.250000
 2511.4100000 63.468601227 2.6328001022  -999.250000 -999.250000
 2511.5624000 63.592800140 2.6345000267  -999.250000 -999.250000
 2511.7148000 63.742099762 2.6359000206  -999.250000 -999.250000
 2511.8672000 63.921001434 2.6373000145  -999.250000 -999.250000
 2512.0196000 64.095901489 2.6384000778  -999.250000 -999.250000
 2512.1720000 64.196098328 2.6386001110  -999.250000 -999.250000
 2512.3244000 64.204597473 2.6380999088  -999.250000 -999.250000
 2512.4768000 64.117996216 2.6377999783  -999.250000 -999.250000
 2512.6292000 63.959701538 2.6380999088  -999.250000 -999.250000
 2512.7816000 63.777099609 2.6391000748  -999.250000 -999.250000
 2512.9340000 63.603199005 2.6403999329  -999.250000 -999.250000
 2513.0864000 63.417098999 2.6419000626  -999.250000 -999.250000
 2513.2388000 63.229999542 2.6433999538  -999.250000 -999.250000
 2513.3912000 63.105201721 2.6438999176  -999.250000 -999.250000
 2513.5436000 63.048099518 2.6422998905  -999.250000 -999.250000
 2513.6960000 63.038799286 2.6382999420  -999.250000 -999.250000
 2513.8484000 63.020599365 2.6331999302  -999.250000 -999.250000
 2514.0008000 62.920299530 2.6287000179  -999.250000 -999.250000
 2514.1532000 62.830898285 2.6257998943  -999.250000 -999.250000
 2514.3056000 62.892398834 2.6240000725  -999.250000 -999.250000
 2514.4580000 63.078399658 2.6222000122  -999.250000 -999.250000
 2514.6104000 63.227298737 2.6198999882  -999.250000 -999.250000
 2514.7628000 63.247200012 2.6173999310  -999.250000 -999.250000
 2514.9152000 63.207801819 2.6150999069  -999.250000 -999.250000
 2515.0676000 63.127101898 2.6133000851  -999.250000 -999.250000
 2515.2200000 62.997299194 2.6120998859  -999.250000 -999.250000
 2515.3724000 62.833198547 2.6119999886  -999.250000 -999.250000
 2515.5248000 62.697799683 2.6124000549  -999.250000 -999.250000
 2515.6772000 62.673000336 2.6120998859  -999.250000 -999.250000
 2515.8296000 62.752498627 2.6110999584  -999.250000 -999.250000
 2515.9820000 62.885398865 2.6103999615  -999.250000 -999.250000
 2516.1344000 62.997001648 2.6110000610  -999.250000 -999.250000
 2516.2868000 63.059200287 2.6129000187  -999.250000 -999.250000
 2516.4392000 63.079200745 2.6147000790  -999.250000 -999.250000
 2516.5916000 63.054401398 2.6152000427  -999.250000 -999.250000
 2516.7440000 62.987300873 2.6143999100  -999.250000 -999.250000
 2516.8964000 62.896598816 2.6133000851  -999.250000 -999.250000
 2517.0488000 62.844898224 2.6129000187  -999.250000 -999.250000
 2517.2012000 62.872501373 2.6131999493  -999.250000 -999.250000
 2517.3536000 63.003501892 2.6133000851  -999.250000 -999.250000
 2517.5060000 63.201900482 2.6129000187  -999.250000 -999.250000
 2517.6584000 63.383701324 2.6115000248  -999.250000 -999.250000
 2517.8108000 63.516498566 2.6089999676  -999.250000 -999.250000
 2517.9632000 63.610401154 2.6057999134  -999.250000 -999.250000
 2518.1156000 63.710098267 2.6031000614  -999.250000 -999.250000
 2518.2680000 63.883098602 2.6022000313  -999.250000 -999.250000
 2518.4204000 64.142799377 2.6022999287  -999.250000 -999.250000
