~Version Information Section
 VERS.      2.0         :CWLS LOG ASCII STANDARD - VERSION 2.0
 WRAP.      NO          :SINGLE LINE PER DEPTH STEP
 CREA.      8/24/2012 12:51:22
~Well Information Section
#MNEM.UNIT                      VALUE/NAME                 DESCRIPTION
#----.----     ----------------------------------   --------------------
 STRT .m          1517.0000000                         :START DEPTH
 STOP .m          3850.7012000                         :STOP DEPTH
 STEP .m            0.15240000                         :STEP VALUE
 NULL .            -999.250000                          :NULL VALUE
 SRVC .          SCH                                  :Service Company/Logging company
 DATE .          08/24/2012                           :LAS file Creation Date
 WELL .          KK1                                  :Well Name
 COMP .          NPK                                  :Company
 FLD  .          DY                                   :Field
 STATE.                                               :State
 COUNT.                                               :Country
 LOC  .                                               :Location
 LATI .          0                                    :Latitude/Northing
 LONG .          0                                    :Longitude/Easting
 PDAT .          RT                                   :Permanent Datum
 EPDAT.          0.0000                               :Elevation of Permanent Datum
 LGMEA.          RT                                   :Log Measured from
 KB   .          15.0000                              :KB Elevation
 UWI.            KK1                                  :UNIQUE WELL ID

#==================================================================
~Curve
DEPT .m                   : DEPTH
DT .us/ft                 : DT
RHOB           .g/cm3     : RHOB
SW  .m3/m3                : SW 
PHIE           .m3/m3     : PHIE

~Parameter
#==================================================================
~Ascii
# ...
 2896.5248000 71.341598511 2.4779000282 0.0869000033 .1530999988
 2896.6772000 73.021896362 2.4693000317 0.0835999995 .1591999978
 2896.8296000 74.089202881 2.4586000443 0.0815000013 .1659000069
 2896.9820000 74.484901428 2.4470999241 0.0786999986 .1761000007
 2897.1344000 74.470802307 2.4379000664 0.0763999969 .1840000004
 2897.2868000 74.194099426 2.4342999458 0.0772000030 .1819999963
 2897.4392000 73.822303772 2.4330999851 0.0776000023 .1800000072
 2897.5916000 73.305900574 2.4302999973 0.0772999972 .1805000007
 2897.7440000 72.612396240 2.4260001183 0.0768000036 .1823000014
 2897.8964000 71.827400208 2.4251999855 0.0763000026 .1846999973
 2898.0488000 71.108901978 2.4333000183 0.0790999979 .1787000000
 2898.2012000 70.587097168 2.4511001110 0.0855000019 .1650999933
 2898.3536000 70.198898315 2.4716000557 0.0926000029 .1519999951
 2898.5060000 69.848503113 2.4879000187 0.0979000032 .1437000036
 2898.6584000 69.413299561 2.4979000092 0.1023000032 .1385000050
 2898.8108000 68.887802124 2.5046999454 0.1076999977 .1335999966
 2898.9632000 68.276000977 2.5109000206 0.1140000001 .1291999966
 2899.1156000 67.986099243 2.5162000656 0.1199000031 .1264999956
 2899.2680000 68.141403198 2.5179998875 0.1229000017 .1274999976
 2899.4204000 68.253501892 2.5157001019 0.1238999963 .1304000020
 2899.5728000 67.958099365 2.5100998878 0.1224000007 .1354999989
 2899.7252000 67.398002625 2.5034000874 0.1198000014 .1415999979
 2899.8776000 67.002700806 2.4972000122 0.1174999997 .1466999948
 2900.0300000 67.144996643 2.4916000366 0.1165999994 .1497000009
 2900.1824000 68.125900269 2.4814999104 0.1143999994 .1536000073
 2900.3348000 69.516296387 2.4632999897 0.1071000025 .1648000032
 2900.4872000 71.055099487 2.4391999245 0.0971999988 .1814000010
 2900.6396000 72.262496948 2.4198000431 0.0922999978 .1895000041
 2900.7920000 72.670799255 2.4151000977 0.0914999992 .1881999969
 2900.9444000 72.275497437 2.4249999523 0.0927999988 .1817000061
 2901.0968000 71.414497375 2.4444999695 0.0954999998 .1723999977
 2901.2492000 70.730201721 2.4635000229 0.0995000005 .1621000022
 2901.4016000 70.528800964 2.4760999680 0.1030000001 .1533000022
 2901.5540000 70.685699463 2.4813001156 0.1032999977 .1499000043
 2901.7064000 70.921699524 2.4807000160 0.1014000028 .1510999948
 2901.8588000 71.006698608 2.4767999649 0.1005000025 .1517000049
 2902.0112000 70.849601746 2.4723000526 0.1006999984 .1517000049
 2902.1636000 70.395202637 2.4707999229 0.1013000011 .1523000002
 2902.3160000 69.758300781 2.4735000134 0.1027000025 .1521999985
 2902.4684000 69.182296753 2.4791998863 0.1046999991 .1508000046
 2902.6208000 68.816497803 2.4867000580 0.1068999991 .1483000070
 2902.7732000 68.660598755 2.4971001148 0.1106999964 .1428000033
 2902.9256000 68.570297241 2.5078001022 0.1143999994 .1376000047
 2903.0780000 68.467697144 2.5164000988 0.1186000034 .1323000044
 2903.2304000 68.390998840 2.5244998932 0.1244999990 .1259000003
 2903.3828000 68.467300415 2.5295000076 0.1269000024 .1238999963
 2903.5352000 68.656600952 2.5269999504 0.1238999963 .1280000061
 2903.6876000 68.834396362 2.5183000565 0.1212999970 .1321000010
 2903.8400000 68.914497375 2.5302000046 0.1275999993 .1261000037
 2903.9924000 68.917297363 2.5645999908 0.1448999941 .1107999980
 2904.1448000 68.930603027 2.5773999691 0.1564999968 .1023999974
 2904.2972000 69.002998352 2.5587000847 0.1432999969 .1128999963
 2904.4496000 69.009696960 2.5643999577 0.1466999948 .1106999964
 2904.6020000 68.615699768 2.5727999210 0.1573999971 .1039000005
 2904.7544000 67.643898010 2.5471000671 0.1504999995 .1112999991
 2904.9068000 66.299102783 2.5227000713 0.1402000040 .1238000020
 2905.0592000 65.031097412 2.5297999382 0.1457999945 .1228000000
 2905.2116000 64.160797119 2.5499999523 0.1592999995 .1152999997
 2905.3640000 63.811000824 2.5583999157 0.1676999927 .1115999967
 2905.5164000 63.830898285 2.5529999733 0.1670999974 .1132000014
 2905.6688000 64.092697144 2.5439000130 0.1638000011 .1155999973
 2905.8212000 64.446197510 2.5397000313 0.1618999988 .1163000017
 2905.9736000 64.774101257 2.5418000221 0.1634999961 .1145000011
 2906.1260000 65.094299316 2.5450000763 0.1641000062 .1134999990
 2906.2784000 65.575401306 2.5450999737 0.1638000011 .1136000007
 2906.4308000 66.231498718 2.5434999466 0.1650999933 .1124000028
 2906.5832000 66.929100037 2.5425000191 0.1643999964 .1125999987
 2906.7356000 67.505401611 2.5418999195 0.1596000046 .1156999990
 2906.8880000 67.957496643 2.5404000282 0.1574999988 .1162000000
 2907.0404000 68.434196472 2.5367999077 0.1552000046 .1165999994
 2907.1928000 68.911697388 2.5306999683 0.1498000026 .1194000021
 2907.3452000 69.095596313 2.5264000893 0.1433999985 .1238999963
 2907.4976000 68.605598450 2.5290000439 0.1432999969 .1235999987
 2907.6500000 67.398597717 2.5380001068 0.1518000066 .1164000034
 2907.8024000 66.171401978 2.5490999222 0.1632999927 .1083000004
 2907.9548000 65.531997681 2.5569999218 0.1705999970 .1045000032
 2908.1072000 65.300498962 2.5592000484 0.1717000008 .1054000035
 2908.2596000 65.005500793 2.5583000183 0.1749999970 .1048000008
 2908.4120000 64.589897156 2.5578999519 0.1764000058 .1049999967
 2908.5644000 64.301200867 2.5597000122 0.1744000018 .1066000015
 2908.7168000 64.322303772 2.5622000694 0.1756000072 .1054999977
 2908.8692000 64.688598633 2.5615999699 0.1754000038 .1044000015
 2909.0216000 65.303901672 2.5543000698 0.1668999940 .1081999987
 2909.1740000 66.097297668 2.5371000767 0.1518999934 .1168999970
 2909.3264000 66.970497131 2.5164999962 0.1370999962 .1274999976
 2909.4788000 67.968399048 2.5009999275 0.1246000007 .1379999965
 2909.6312000 68.983001709 2.4928998947 0.1162000000 .1460999995
 2909.7836000 69.590400696 2.4913001060 0.1138999984 .1481000036
 2909.9360000 69.532997131 2.4907999039 0.1155000031 .1460999995
 2910.0884000 68.830398560 2.4886999130 0.1174999997 .1449999958
 2910.2408000 68.020500183 2.4848001003 0.1181000024 .1465000063
 2910.3932000 67.418899536 2.4797999859 0.1182999983 .1492000073
 2910.5456000 66.886596680 2.4751999378 0.1190999970 .1513999999
 2910.6980000 66.142997742 2.4718999863 0.1199999973 .1534000039
 2910.8504000 65.252502441 2.4697999954 0.1202000007 .1551000029
 2911.0028000 64.595802307 2.4686999321 0.1199999973 .1564999968
 2911.1552000 64.526199341 2.4681999683 0.1204999983 .1561000049
 2911.3076000 65.092697144 2.4686000347 0.1206000000 .1555999964
 2911.4600000 65.991600037 2.4691998959 0.1194000021 .1562000066
 2911.6124000 66.692100525 2.4691998959 0.1190000027 .1552000046
 2911.7648000 66.753799438 2.4700000286 0.1198000014 .1525000036
 2911.9172000 66.271102905 2.4739999771 0.1212999970 .1490000039
 2912.0696000 65.720497131 2.4807999134 0.1225999966 .1469999999
 2912.2220000 65.674499512 2.4842000008 0.1209999993 .1500000060
 2912.3744000 66.199302673 2.4777998924 0.1212999970 .1518999934
 2912.5268000 66.749198914 2.4656000137 0.1203000024 .1562999934
 2912.6792000 66.910400391 2.4553000927 0.1177000031 .1625999957
 2912.8316000 66.711898804 2.4502000809 0.1147999987 .1684000045
 2912.9840000 66.420303345 2.4481000900 0.1116999984 .1722999960
 2913.1364000 66.208099365 2.4442999363 0.1092000008 .1732999980
 2913.2888000 66.155799866 2.4339001179 0.1049999967 .1761000007
 2913.4412000 66.487098694 2.4154000282 0.0973000005 .1859000027
 2913.5936000 67.483398438 2.3898000717 0.0888999999 .1995999962
 2913.7460000 69.158203125 2.3650999069 0.0825999975 .2105000019
 2913.8984000 71.191802979 2.3492999077 0.0777999982 .2180999964
 2914.0508000 73.003601074 2.3438000679 0.0733999982 .2249999940
 2914.2032000 74.321502686 2.3454000950 0.0693000033 .2310999930
 2914.3556000 75.139503479 2.3505001068 0.0689999983 .2246000022
 2914.5080000 75.449302673 2.3584001064 0.0694999993 .2159000039
 2914.6604000 75.176399231 2.3699998856 0.0696000010 .2090999931
 2914.8128000 74.402900696 2.3868999481 0.0701000020 .2025000006
 2914.9652000 73.536796570 2.4082000256 0.0725999996 .1914999932
 2915.1176000 73.162597656 2.4268999100 0.0756999999 .1817000061
 2915.2700000 73.930496216 2.4307999611 0.0751999989 .1816000044
