~Version Information Section
 VERS.      2.0         :CWLS LOG ASCII STANDARD - VERSION 2.0
 WRAP.      NO          :SINGLE LINE PER DEPTH STEP
 CREA.      8/24/2012 12:51:22
~Well Information Section
#MNEM.UNIT                      VALUE/NAME                 DESCRIPTION
#----.----     ----------------------------------   --------------------
 STRT .m          1517.0000000                         :START DEPTH
 STOP .m          3850.7012000                         :STOP DEPTH
 STEP .m            0.15240000                         :STEP VALUE
 NULL .            -999.250000                          :NULL VALUE
 SRVC .          SCH                                  :Service Company/Logging company
 DATE .          08/24/2012                           :LAS file Creation Date
 WELL .          KK1                                  :Well Name
 COMP .          NPK                                  :Company
 FLD  .          DY                                   :Field
 STATE.                                               :State
 COUNT.                                               :Country
 LOC  .                                               :Location
 LATI .          0                                    :Latitude/Northing
 LONG .          0                                    :Longitude/Easting
 PDAT .          RT                                   :Permanent Datum
 EPDAT.          0.0000                               :Elevation of Permanent Datum
 LGMEA.          RT                                   :Log Measured from
 KB   .          15.0000                              :KB Elevation
 UWI.            KK1                                  :UNIQUE WELL ID

#==================================================================
~Curve
DEPT .m                   : DEPTH
DT .us/ft                 : DT
RHOB           .g/cm3     : RHOB
SW  .m3/m3                : SW 
PHIE           .m3/m3     : PHIE

~Parameter
#==================================================================
~Ascii
# ...
 4064.5184000 50.786098480 2.6914000511 0.0631999969 0.0207000002
 4064.6708000 50.703201294 2.7007999420 0.0816000029 0.0156999994
 4064.8232000 50.529998779 2.7102999687 0.1162000000 0.0108000003
 4064.9756000 50.398700714 2.7320001125 1.0000000000 0.0001000000
 4065.1280000 50.341800690 2.8052999973 1.0000000000 0.0001000000
 4065.2804000 50.346000671 2.8692998886 1.0000000000 0.0001000000
 4065.4328000 50.532299042 2.8420000076 1.0000000000 0.0001000000
 4065.5852000 51.098400116 2.7409999371 1.0000000000 0.0001000000
 4065.7376000 52.135898590 2.7081000805 0.3849999905 0.0122999996
 4065.8900000 53.256900787 2.7267999649 1.0000000000 0.0001000000
 4066.0424000 53.939800262 2.7432000637 1.0000000000 0.0001000000
 4066.1948000 53.903701782 2.7420001030 1.0000000000 0.0001000000
 4066.3472000 53.335800171 2.7263998985 1.0000000000 0.0001000000
 4066.4996000 52.918201447 2.7072000504 1.0000000000 0.0033000000
 4066.6520000 53.175399780 2.6893000603 0.7925999761 0.0148999998
 4066.8044000 54.164001465 2.6712999344 0.4839000106 0.0254999995
 4066.9568000 55.464698792 2.6519000530 0.3506999910 0.0375000015
 4067.1092000 56.603199005 2.6338000298 0.3018999994 0.0485999994
 4067.2616000 57.499801636 2.6205999851 0.2960999906 0.0562999994
 4067.4140000 58.321998596 2.6110999584 0.3019999862 0.0617999993
 4067.5664000 59.155998230 2.6008000374 0.3014999926 0.0680000037
 4067.7188000 59.829898834 2.5883998871 0.2930999994 0.0750999972
 4067.8712000 60.176700592 2.5768001080 0.2856999934 0.0816999972
 4068.0236000 60.055198669 2.5713000298 0.2856000066 0.0854000002
 4068.1760000 59.728000641 2.5713000298 0.2919000089 0.0857999995
 4068.3284000 59.395900726 2.5754001141 0.3005000055 0.0834999979
 4068.4808000 59.081298828 2.5820999146 0.3086999953 0.0797000006
 4068.6332000 58.478801727 2.5961000919 0.3273000121 0.0719999969
 4068.7856000 57.422500610 2.6196999550 0.3722999990 0.0597000010
 4068.9380000 56.122699738 2.6498000622 0.4618999958 0.0445999987
 4069.0904000 55.254901886 2.6730000973 0.5684999824 0.0331999995
 4069.2428000 55.371299744 2.6744999886 0.5386999846 0.0318000019
 4069.3952000 56.335700989 2.6547999382 0.3797999918 0.0401999988
 4069.5476000 57.551898956 2.6275999546 0.2471999973 0.0529000014
 4069.7000000 58.240501404 2.6117000580 0.1758999974 0.0608999990
 4069.8524000 58.013401031 2.6168000698 0.1440999955 0.0584000014
 4070.0048000 56.912799835 2.6382999420 0.1266999990 0.0472999997
 4070.1572000 55.341999054 2.6647999287 0.0885000005 0.0335999988
 4070.3096000 53.727401733 2.6872000694 0.0579999983 0.0227000006
 4070.4620000 52.313899994 2.7269999981 0.3203999996 0.0035999999
 4070.6144000 51.236499786 2.8357999325 1.0000000000 0.0001000000
 4070.7668000 50.489101410 2.9342000484 1.0000000000 0.0001000000
 4070.9192000 50.115798950 2.9472000599 1.0000000000 0.0001000000
 4071.0716000 49.980201721 2.9489998817 1.0000000000 0.0001000000
 4071.2240000 49.986999512 2.9216001034 1.0000000000 0.0001000000
 4071.3764000 50.032901764 2.8248999119 1.0000000000 0.0001000000
 4071.5288000 50.179298401 2.7736999989 1.0000000000 0.0001000000
 4071.6812000 50.462699890 2.7609999180 1.0000000000 0.0001000000
 4071.8336000 50.861301422 2.7525999546 1.0000000000 0.0001000000
 4071.9860000 51.203899384 2.7465999126 1.0000000000 0.0001000000
 4072.1384000 51.294898987 2.7471001148 1.0000000000 0.0001000000
 4072.2908000 51.097900391 2.7551000118 1.0000000000 0.0001000000
 4072.4432000 50.719299316 2.7641000748 1.0000000000 0.0001000000
 4072.5956000 50.367099762 2.7643001080 1.0000000000 0.0001000000
 4072.7480000 50.148899078 2.7544000149 1.0000000000 0.0001000000
 4072.9004000 50.062198639 2.7393999100 1.0000000000 0.0001000000
 4073.0528000 50.109199524 2.7249999046 0.2274000049 0.0052999998
 4073.2052000 50.437999725 2.7130000591 0.1111999974 0.0113000004
 4073.3576000 51.273101807 2.7004001141 0.0737999976 0.0175000001
 4073.5100000 52.911399841 2.6833000183 0.1761000007 0.0262000002
 4073.6624000 55.329700470 2.6593999863 0.2389999926 0.0384999998
 4073.8148000 58.288700104 2.6273999214 0.2222000062 0.0544999987
 4073.9672000 61.202301025 2.5905001163 0.1994999945 0.0725999996
 4074.1196000 63.470298767 2.5532000065 0.1799000055 0.0907000005
 4074.2720000 65.020103455 2.5208001137 0.1665000021 0.1063999981
 4074.4244000 65.871696472 2.4999001026 0.1582999974 0.1167000011
 4074.5768000 66.443199158 2.4874999523 0.1529999971 0.1230000034
 4074.7292000 66.851402283 2.4798998833 0.1490000039 0.1268000007
 4074.8816000 67.028503418 2.4730999470 0.1455000043 0.1301999986
 4075.0340000 66.867500305 2.4669001102 0.1430000067 0.1339000016
 4075.1864000 66.486900330 2.4644000530 0.1430000067 0.1359000057
 4075.3388000 66.077301025 2.4681999683 0.1459999979 0.1343999952
 4075.4912000 65.742897034 2.4763000011 0.1501999944 0.1305000037
 4075.6436000 65.323303223 2.4853999615 0.1536000073 0.1263999939
 4075.7960000 64.577301025 2.4930000305 0.1553999931 0.1230999976
 4075.9484000 63.468700409 2.5000000000 0.1570000052 0.1199000031
 4076.1008000 62.215499878 2.5102999210 0.1606000066 0.1147999987
 4076.2532000 61.051498413 2.5264000893 0.1676000059 0.1067000031
 4076.4056000 60.043800354 2.5469999313 0.1776999980 0.0960000008
 4076.5580000 59.060798645 2.5690999031 0.1890999973 0.0842999965
 4076.7104000 57.986999512 2.5920999050 0.1988999993 0.0725999996
 4076.8628000 56.852600098 2.6175000668 0.2091999948 0.0601999983
 4077.0152000 55.718601227 2.6466999054 0.2236000001 0.0456999987
 4077.1676000 54.587799072 2.6775000095 0.2552999854 0.0302000009
 4077.3200000 53.435298920 2.7049999237 0.2996999919 0.0162000004
 4077.4724000 52.348899841 2.7246000767 0.3833999932 0.0060999999
 4077.6248000 51.629299164 2.7302999496 0.4185000062 0.0027000001
 4077.7772000 51.333698273 2.7260000706 0.2685999870 0.0044000000
 4077.9296000 51.413299561 2.7153999805 0.1254999936 0.0098999999
 4078.0820000 51.550998688 2.7051000595 0.0826999992 0.0154999997
 4078.2344000 51.604000092 2.6956000328 0.0657000020 0.0197999999
 4078.3868000 51.669898987 2.6853001118 0.0544000007 0.0242999997
 4078.5392000 51.950000763 2.6744000912 0.0456000008 0.0293000005
 4078.6916000 52.484600067 2.6668000221 0.0412999988 0.0326000005
 4078.8440000 53.103401184 2.6672000885 0.0428000018 0.0313999988
 4078.9964000 53.462398529 2.6781001091 0.0516999997 0.0256999992
 4079.1488000 53.304500580 2.6984999180 0.0791999996 0.0162000004
 4079.3012000 52.620399475 2.7228999138 0.2500000000 0.0048000002
 4079.4536000 51.679798126 2.7423999310 1.0000000000 0.0001000000
 4079.6060000 51.043399811 2.7462000847 1.0000000000 0.0001000000
 4079.7584000 51.297698975 2.7283999920 0.6549000144 0.0017000000
 4079.9108000 52.963401794 2.6868000031 0.1423999965 0.0214000009
 4080.0632000 55.713001251 2.6317000389 0.1121999994 0.0478999987
 4080.2156000 58.663799286 2.5789000988 0.0898000002 0.0733999982
 4080.3680000 60.788898468 2.5411000252 0.0803000033 0.0917999968
 4080.5204000 60.938800812 2.5341000557 0.0807999969 0.0956000015
 4080.6728000 59.615699768 2.5513000488 0.0887999982 0.0882999972
 4080.8252000 57.293899536 2.5922999382 0.1098999977 0.0697999969
 4080.9776000 55.233501434 2.6386001110 0.1509000063 0.0485000014
 4081.1300000 54.448699951 2.6740000248 0.2152000070 0.0320999995
 4081.2824000 55.222499847 2.6809999943 0.2328999937 0.0292000007
 4081.4348000 57.247299194 2.6561999321 0.1746000051 0.0419000015
 4081.5872000 59.343700409 2.6168999672 0.1332000047 0.0612999983
 4081.7396000 60.522399902 2.5796999931 0.1129999980 0.0786999986
 4081.8920000 60.513698578 2.5567998886 0.1017000005 0.0890000015
 4082.0444000 59.605400085 2.5539999008 0.0926000029 0.0901999995
 4082.1968000 58.460498810 2.5682001114 0.0800999999 0.0826999992
 4082.3492000 57.462299347 2.5926001072 0.0555999987 0.0693999976
 4082.5016000 56.618499756 2.6177999973 0.0249000005 0.0560000017
 4082.6540000 55.703899384 2.6391000748 0.0299999993 0.0458999984
 4082.8064000 54.606201172 2.6572999954 0.0362999998 0.0375000015
 4082.9588000 53.578998566 2.6742000580 0.0458999984 0.0291000009
