~Version Information Section
 VERS.      2.0         :CWLS LOG ASCII STANDARD - VERSION 2.0
 WRAP.      NO          :SINGLE LINE PER DEPTH STEP
 CREA.      8/24/2012 12:51:22
~Well Information Section
#MNEM.UNIT                      VALUE/NAME                 DESCRIPTION
#----.----     ----------------------------------   --------------------
 STRT .m          1517.0000000                         :START DEPTH
 STOP .m          3850.7012000                         :STOP DEPTH
 STEP .m            0.15240000                         :STEP VALUE
 NULL .            -999.250000                          :NULL VALUE
 SRVC .          SCH                                  :Service Company/Logging company
 DATE .          08/24/2012                           :LAS file Creation Date
 WELL .          KK1                                  :Well Name
 COMP .          NPK                                  :Company
 FLD  .          DY                                   :Field
 STATE.                                               :State
 COUNT.                                               :Country
 LOC  .                                               :Location
 LATI .          0                                    :Latitude/Northing
 LONG .          0                                    :Longitude/Easting
 PDAT .          RT                                   :Permanent Datum
 EPDAT.          0.0000                               :Elevation of Permanent Datum
 LGMEA.          RT                                   :Log Measured from
 KB   .          15.0000                              :KB Elevation
 UWI.            KK1                                  :UNIQUE WELL ID

#==================================================================
~Curve
DEPT .m                   : DEPTH
DT .us/ft                 : DT
RHOB           .g/cm3     : RHOB
SW  .m3/m3                : SW 
PHIE           .m3/m3     : PHIE

~Parameter
#==================================================================
~Ascii
# ...
 2102.8256000 77.118202209 2.4472000599  -999.250000 -999.250000
 2102.9780000 78.114799500 2.4073998928  -999.250000 -999.250000
 2103.1304000 78.948799133 2.3819000721  -999.250000 -999.250000
 2103.2828000 78.304603577 2.3784000874  -999.250000 -999.250000
 2103.4352000 79.067100525 2.3842000961  -999.250000 -999.250000
 2103.5876000 79.286399841 2.3617000580  -999.250000 -999.250000
 2103.7400000 79.134101868 2.3424999714  -999.250000 -999.250000
 2103.8924000 79.657997131 2.3559000492  -999.250000 -999.250000
 2104.0448000 80.330596924 2.3652999401  -999.250000 -999.250000
 2104.1972000 78.754600525 2.3675000668  -999.250000 -999.250000
 2104.3496000 79.459098816 2.3689999580  -999.250000 -999.250000
 2104.5020000 78.937500000 2.3710999489  -999.250000 -999.250000
 2104.6544000 79.494300842 2.3433001041  -999.250000 -999.250000
 2104.8068000 80.113601685 2.3457000256  -999.250000 -999.250000
 2104.9592000 80.259002686 2.3571000099  -999.250000 -999.250000
 2105.1116000 79.570297241 2.3821001053  -999.250000 -999.250000
 2105.2640000 77.881896973 2.3610000610  -999.250000 -999.250000
 2105.4164000 79.013603210 2.3415999413  -999.250000 -999.250000
 2105.5688000 79.271598816 2.3024001122  -999.250000 -999.250000
 2105.7212000 80.226097107 2.2945001125  -999.250000 -999.250000
 2105.8736000 79.770301819 2.3129000664  -999.250000 -999.250000
 2106.0260000 77.965896606 2.3589000702  -999.250000 -999.250000
 2106.1784000 77.585296631 2.3731000423  -999.250000 -999.250000
 2106.3308000 78.903503418 2.3434000015  -999.250000 -999.250000
 2106.4832000 81.047798157 2.3129999638  -999.250000 -999.250000
 2106.6356000 81.758003235 2.3231999874  -999.250000 -999.250000
 2106.7880000 82.457901001 2.3289000988  -999.250000 -999.250000
 2106.9404000 81.138603210 2.3408999443  -999.250000 -999.250000
 2107.0928000 80.340896606 2.3677999973  -999.250000 -999.250000
 2107.2452000 80.927299500 2.3378000259  -999.250000 -999.250000
 2107.3976000 81.272697449 2.3001999855  -999.250000 -999.250000
 2107.5500000 80.896598816 2.2962000370  -999.250000 -999.250000
 2107.7024000 80.774902344 2.3229000568  -999.250000 -999.250000
 2107.8548000 79.763603210 2.3406000137  -999.250000 -999.250000
 2108.0072000 80.055801392 2.3378999233  -999.250000 -999.250000
 2108.1596000 81.472702026 2.3085000515  -999.250000 -999.250000
 2108.3120000 81.096603394 2.2901999950  -999.250000 -999.250000
 2108.4644000 81.039802551 2.2897999287  -999.250000 -999.250000
 2108.6168000 80.879501343 2.3276000023  -999.250000 -999.250000
 2108.7692000 80.637496948 2.3517999649  -999.250000 -999.250000
 2108.9216000 81.167098999 2.3501000404  -999.250000 -999.250000
 2109.0740000 81.393203735 2.3185000420  -999.250000 -999.250000
 2109.2264000 81.354598999 2.3059000969  -999.250000 -999.250000
 2109.3788000 82.096603394 2.3111999035  -999.250000 -999.250000
 2109.5312000 82.032997131 2.3364000320  -999.250000 -999.250000
 2109.6836000 81.806800842 2.3183999062  -999.250000 -999.250000
 2109.8360000 81.920501709 2.3204998970  -999.250000 -999.250000
 2109.9884000 82.141998291 2.3215000629  -999.250000 -999.250000
 2110.1408000 81.353401184 2.2971999645  -999.250000 -999.250000
 2110.2932000 81.420501709 2.2939999104  -999.250000 -999.250000
 2110.4456000 81.607902527 2.3269000053  -999.250000 -999.250000
 2110.5980000 80.507003784 2.3385000229  -999.250000 -999.250000
 2110.7504000 82.639801025 2.3259000778  -999.250000 -999.250000
 2110.9028000 82.459098816 2.2999000549  -999.250000 -999.250000
 2111.0552000 81.961402893 2.2946000099  -999.250000 -999.250000
 2111.2076000 82.724899292 2.2983000278  -999.250000 -999.250000
 2111.3600000 81.727302551 2.3111999035  -999.250000 -999.250000
 2111.5124000 82.144401550 2.3204998970  -999.250000 -999.250000
 2111.6648000 82.709098816 2.3589999676  -999.250000 -999.250000
 2111.8172000 82.235298157 2.3901998997  -999.250000 -999.250000
 2111.9696000 83.304496765 2.3798000813  -999.250000 -999.250000
 2112.1220000 82.068199158 2.3232998848  -999.250000 -999.250000
 2112.2744000 82.928398132 2.3085000515  -999.250000 -999.250000
 2112.4268000 81.932899475 2.3089001179  -999.250000 -999.250000
 2112.5792000 81.802398682 2.3257000446  -999.250000 -999.250000
 2112.7316000 83.101097107 2.3355998993  -999.250000 -999.250000
 2112.8840000 81.811401367 2.3376998901  -999.250000 -999.250000
 2113.0364000 82.708000183 2.3345999718  -999.250000 -999.250000
 2113.1888000 83.424896240 2.3203001022  -999.250000 -999.250000
 2113.3412000 82.454597473 2.3020999432  -999.250000 -999.250000
 2113.4936000 83.227302551 2.2899999619  -999.250000 -999.250000
 2113.6460000 83.559097290 2.2883000374  -999.250000 -999.250000
 2113.7984000 82.976097107 2.3022999763  -999.250000 -999.250000
 2113.9508000 82.636299133 2.3015000820  -999.250000 -999.250000
 2114.1032000 82.439796448 2.2862000465  -999.250000 -999.250000
 2114.2556000 82.245399475 2.2746999264  -999.250000 -999.250000
 2114.4080000 81.598999023 2.2695999146  -999.250000 -999.250000
 2114.5604000 82.990898132 2.2718000412  -999.250000 -999.250000
 2114.7128000 83.437400818 2.2880001068  -999.250000 -999.250000
 2114.8652000 82.029701233 2.2911000252  -999.250000 -999.250000
 2115.0176000 83.711303711 2.3236999512  -999.250000 -999.250000
 2115.1700000 82.500000000 2.3269999027  -999.250000 -999.250000
 2115.3224000 82.513603210 2.3257000446  -999.250000 -999.250000
 2115.4748000 82.686401367 2.3271000385  -999.250000 -999.250000
 2115.6272000 82.537498474 2.3289999962  -999.250000 -999.250000
 2115.7796000 82.930603027 2.3252000809  -999.250000 -999.250000
 2115.9320000 81.238601685 2.3285000324  -999.250000 -999.250000
 2116.0844000 80.406799316 2.3269999027  -999.250000 -999.250000
 2116.2368000 80.394203186 2.3376998901  -999.250000 -999.250000
 2116.3892000 79.048896790 2.3589000702  -999.250000 -999.250000
 2116.5416000 80.567199707 2.3152999878  -999.250000 -999.250000
 2116.6940000 82.904602051 2.2581999302  -999.250000 -999.250000
 2116.8464000 83.646598816 2.2476000786  -999.250000 -999.250000
 2116.9988000 83.511299133 2.2813000679  -999.250000 -999.250000
 2117.1512000 82.272697449 2.3117001057  -999.250000 -999.250000
 2117.3036000 81.777198792 2.3457000256  -999.250000 -999.250000
 2117.4560000 80.072700500 2.3596000671  -999.250000 -999.250000
 2117.6084000 79.717102051 2.3487999439  -999.250000 -999.250000
 2117.7608000 80.066001892 2.3378000259  -999.250000 -999.250000
 2117.9132000 81.684097290 2.3178999424  -999.250000 -999.250000
 2118.0656000 82.098800659 2.2990000248  -999.250000 -999.250000
 2118.2180000 81.338600159 2.3173000813  -999.250000 -999.250000
 2118.3704000 80.482902527 2.3675999641  -999.250000 -999.250000
 2118.5228000 80.253402710 2.3733999729  -999.250000 -999.250000
 2118.6752000 80.409202576 2.3568000793  -999.250000 -999.250000
 2118.8276000 81.859100342 2.3331999779  -999.250000 -999.250000
 2118.9800000 81.252197266 2.3285000324  -999.250000 -999.250000
 2119.1324000 80.565902710 2.3529000282  -999.250000 -999.250000
 2119.2848000 80.120498657 2.3750000000  -999.250000 -999.250000
 2119.4372000 80.427299500 2.3794999123  -999.250000 -999.250000
 2119.5896000 80.875099182 2.3487000465  -999.250000 -999.250000
 2119.7420000 81.968200684 2.3238000870  -999.250000 -999.250000
 2119.8944000 82.917098999 2.3132998943  -999.250000 -999.250000
 2120.0468000 83.156799316 2.3111000061  -999.250000 -999.250000
 2120.1992000 83.219299316 2.3120999336  -999.250000 -999.250000
 2120.3516000 82.772697449 2.2987999916  -999.250000 -999.250000
 2120.5040000 82.461402893 2.2750000954  -999.250000 -999.250000
 2120.6564000 83.279502869 2.2769000530  -999.250000 -999.250000
 2120.8088000 82.959098816 2.2853999138  -999.250000 -999.250000
 2120.9612000 82.324897766 2.2990999222  -999.250000 -999.250000
 2121.1136000 81.228302002 2.3094999790  -999.250000 -999.250000
 2121.2660000 80.318199158 2.3217000961  -999.250000 -999.250000
 2121.4184000 81.321601868 2.3132998943  -999.250000 -999.250000
 2121.5708000 82.320503235 2.3036000729  -999.250000 -999.250000
