~Version Information Section
 VERS.      2.0         :CWLS LOG ASCII STANDARD - VERSION 2.0
 WRAP.      NO          :SINGLE LINE PER DEPTH STEP
 CREA.      8/24/2012 12:51:22
~Well Information Section
#MNEM.UNIT                      VALUE/NAME                 DESCRIPTION
#----.----     ----------------------------------   --------------------
 STRT .m          1517.0000000                         :START DEPTH
 STOP .m          3850.7012000                         :STOP DEPTH
 STEP .m            0.15240000                         :STEP VALUE
 NULL .            -999.250000                          :NULL VALUE
 SRVC .          SCH                                  :Service Company/Logging company
 DATE .          08/24/2012                           :LAS file Creation Date
 WELL .          KK1                                  :Well Name
 COMP .          NPK                                  :Company
 FLD  .          DY                                   :Field
 STATE.                                               :State
 COUNT.                                               :Country
 LOC  .                                               :Location
 LATI .          0                                    :Latitude/Northing
 LONG .          0                                    :Longitude/Easting
 PDAT .          RT                                   :Permanent Datum
 EPDAT.          0.0000                               :Elevation of Permanent Datum
 LGMEA.          RT                                   :Log Measured from
 KB   .          15.0000                              :KB Elevation
 UWI.            KK1                                  :UNIQUE WELL ID

#==================================================================
~Curve
DEPT .m                   : DEPTH
DT .us/ft                 : DT
RHOB           .g/cm3     : RHOB
SW  .m3/m3                : SW 
PHIE           .m3/m3     : PHIE

~Parameter
#==================================================================
~Ascii
# ...
 1705.9760000 96.929702759 2.1061000824  -999.250000 -999.250000
 1706.1284000 98.300796509 1.8694000244  -999.250000 -999.250000
 1706.2808000 93.624496460 1.7192000151  -999.250000 -999.250000
 1706.4332000 104.86199951 1.7682000399  -999.250000 -999.250000
 1706.5856000 113.30629730 1.8803000450  -999.250000 -999.250000
 1706.7380000 105.04309845 2.0367999077  -999.250000 -999.250000
 1706.8904000 102.03330231 2.0631999969  -999.250000 -999.250000
 1707.0428000 88.934097290 2.0831999779  -999.250000 -999.250000
 1707.1952000 72.359703064 2.1268000603  -999.250000 -999.250000
 1707.3476000 83.336402893 2.1749999523  -999.250000 -999.250000
 1707.5000000 101.51419830 2.2451999187  -999.250000 -999.250000
 1707.6524000 110.56880188 2.1719999313  -999.250000 -999.250000
 1707.8048000 119.76139832 2.1681001186  -999.250000 -999.250000
 1707.9572000 120.13939667 2.2237000465  -999.250000 -999.250000
 1708.1096000 113.36889648 2.3361001015  -999.250000 -999.250000
 1708.2620000 106.57479858 2.3617000580  -999.250000 -999.250000
 1708.4144000 103.31580353 2.3559000492  -999.250000 -999.250000
 1708.5668000 100.81700134 2.3696000576  -999.250000 -999.250000
 1708.7192000 101.06020355 2.3743000031  -999.250000 -999.250000
 1708.8716000 101.24099731 2.3677999973  -999.250000 -999.250000
 1709.0240000 101.59529877 2.3468000889  -999.250000 -999.250000
 1709.1764000 98.779502869 2.3348999023  -999.250000 -999.250000
 1709.3288000 98.636497498 2.3448998928  -999.250000 -999.250000
 1709.4812000 100.36350250 2.3431999683  -999.250000 -999.250000
 1709.6336000 98.479499817 2.3250999451  -999.250000 -999.250000
 1709.7860000 98.128303528 2.3108000755  -999.250000 -999.250000
 1709.9384000 97.170501709 2.2899999619  -999.250000 -999.250000
 1710.0908000 97.467102051 2.2708001137  -999.250000 -999.250000
 1710.2432000 97.884201050 2.2604999542  -999.250000 -999.250000
 1710.3956000 100.45459747 2.2539999485  -999.250000 -999.250000
 1710.5480000 101.19999695 2.2286999226  -999.250000 -999.250000
 1710.7004000 101.63680267 2.2005999088  -999.250000 -999.250000
 1710.8528000 108.04360199 2.2132999897  -999.250000 -999.250000
 1711.0052000 113.21630096 2.2727999687  -999.250000 -999.250000
 1711.1576000 100.69960022 2.3606998920  -999.250000 -999.250000
 1711.3100000 94.280403137 2.3942999840  -999.250000 -999.250000
 1711.4624000 90.436203003 2.4144001007  -999.250000 -999.250000
 1711.6148000 88.391098022 2.4051001072  -999.250000 -999.250000
 1711.7672000 91.122802734 2.4012000561  -999.250000 -999.250000
 1711.9196000 92.902397156 2.3894999027  -999.250000 -999.250000
 1712.0720000 94.354598999 2.4200999737  -999.250000 -999.250000
 1712.2244000 95.482200623 2.3859999180  -999.250000 -999.250000
 1712.3768000 100.86380005 2.3280000687  -999.250000 -999.250000
 1712.5292000 102.64620209 2.2825999260  -999.250000 -999.250000
 1712.6816000 96.562599182 2.2792999744  -999.250000 -999.250000
 1712.8340000 98.123901367 2.2964999676  -999.250000 -999.250000
 1712.9864000 98.470497131 2.2955999374  -999.250000 -999.250000
 1713.1388000 98.794403076 2.2946000099  -999.250000 -999.250000
 1713.2912000 99.495498657 2.2864000797  -999.250000 -999.250000
 1713.4436000 100.71810150 2.2681000233  -999.250000 -999.250000
 1713.5960000 99.449897766 2.2978000641  -999.250000 -999.250000
 1713.7484000 97.266899109 2.3343999386  -999.250000 -999.250000
 1713.9008000 95.241897583 2.3859999180  -999.250000 -999.250000
 1714.0532000 92.167999268 2.4140000343  -999.250000 -999.250000
 1714.2056000 88.921501160 2.4277000427  -999.250000 -999.250000
 1714.3580000 87.853401184 2.4214999676  -999.250000 -999.250000
 1714.5104000 87.865898132 2.4110999107  -999.250000 -999.250000
 1714.6628000 87.427299500 2.4202001095  -999.250000 -999.250000
 1714.8152000 87.772697449 2.4212000370  -999.250000 -999.250000
 1714.9676000 87.359100342 2.4179000854  -999.250000 -999.250000
 1715.1200000 86.796600342 2.4226999283  -999.250000 -999.250000
 1715.2724000 86.773902893 2.4326999187  -999.250000 -999.250000
 1715.4248000 87.120498657 2.4309000969  -999.250000 -999.250000
 1715.5772000 87.427299500 2.4326999187  -999.250000 -999.250000
 1715.7296000 87.806800842 2.4428999424  -999.250000 -999.250000
 1715.8820000 87.879501343 2.4518001080  -999.250000 -999.250000
 1716.0344000 87.596603394 2.4321000576  -999.250000 -999.250000
 1716.1868000 87.649002075 2.4077999592  -999.250000 -999.250000
 1716.3392000 89.102302551 2.3815000057  -999.250000 -999.250000
 1716.4916000 90.537498474 2.3599998951  -999.250000 -999.250000
 1716.6440000 91.244499207 2.3215000629  -999.250000 -999.250000
 1716.7964000 94.002403259 2.2985000610  -999.250000 -999.250000
 1716.9488000 95.430702209 2.2915000916  -999.250000 -999.250000
 1717.1012000 95.976196289 2.2809000015  -999.250000 -999.250000
 1717.2536000 97.754600525 2.2604999542  -999.250000 -999.250000
 1717.4060000 98.544403076 2.2469000816  -999.250000 -999.250000
 1717.5584000 99.187500000 2.2472999096  -999.250000 -999.250000
 1717.7108000 99.761398315 2.2435998917  -999.250000 -999.250000
 1717.8632000 100.62729645 2.2427999973  -999.250000 -999.250000
 1718.0156000 101.00000000 2.2471001148  -999.250000 -999.250000
 1718.1680000 101.01370239 2.2602999210  -999.250000 -999.250000
 1718.3204000 101.22730255 2.2525000572  -999.250000 -999.250000
 1718.4728000 101.63410187 2.2381000519  -999.250000 -999.250000
 1718.6252000 102.08640289 2.2279000282  -999.250000 -999.250000
 1718.7776000 102.01940155 2.2281999588  -999.250000 -999.250000
 1718.9300000 103.58519745 2.2335000038  -999.250000 -999.250000
 1719.0824000 102.75460052 2.2311999798  -999.250000 -999.250000
 1719.2348000 103.50679779 2.2339000702  -999.250000 -999.250000
 1719.3872000 103.64099884 2.2425000668  -999.250000 -999.250000
 1719.5396000 103.99530029 2.2880001068  -999.250000 -999.250000
 1719.6920000 100.63020325 2.3682999611  -999.250000 -999.250000
 1719.8444000 92.225601196 2.4347000122  -999.250000 -999.250000
 1719.9968000 83.464599609 2.4260001183  -999.250000 -999.250000
 1720.1492000 80.246597290 2.3914000988  -999.250000 -999.250000
 1720.3016000 80.554801941 2.3805999756  -999.250000 -999.250000
 1720.4540000 85.720703125 2.4052000046  -999.250000 -999.250000
 1720.6064000 90.079498291 2.4147000313  -999.250000 -999.250000
 1720.7588000 89.779502869 2.4121000767  -999.250000 -999.250000
 1720.9112000 89.486396790 2.3914000988  -999.250000 -999.250000
 1721.0636000 89.276100159 2.3866000175  -999.250000 -999.250000
 1721.2160000 88.967102051 2.3973000050  -999.250000 -999.250000
 1721.3684000 89.186401367 2.3907001019  -999.250000 -999.250000
 1721.5208000 88.993202209 2.3814001083  -999.250000 -999.250000
 1721.6732000 88.941001892 2.3836998940  -999.250000 -999.250000
 1721.8256000 89.500000000 2.3850998878  -999.250000 -999.250000
 1721.9780000 89.493202209 2.4089000225  -999.250000 -999.250000
 1722.1304000 89.365898132 2.4172999859  -999.250000 -999.250000
 1722.2828000 88.862503052 2.4175999165  -999.250000 -999.250000
 1722.4352000 88.315902710 2.4072999954  -999.250000 -999.250000
 1722.5876000 87.853401184 2.4028999805  -999.250000 -999.250000
 1722.7400000 87.934097290 2.4017999172  -999.250000 -999.250000
 1722.8924000 88.410202026 2.4019999504  -999.250000 -999.250000
 1723.0448000 88.539802551 2.3872001171  -999.250000 -999.250000
 1723.1972000 88.403396606 2.3829998970  -999.250000 -999.250000
 1723.3496000 88.535301208 2.3575999737  -999.250000 -999.250000
 1723.5020000 89.781898499 2.3210999966  -999.250000 -999.250000
 1723.6544000 91.056999207 2.3024001122  -999.250000 -999.250000
 1723.8068000 93.326202393 2.2797999382  -999.250000 -999.250000
 1723.9592000 95.155799866 2.2664000988  -999.250000 -999.250000
 1724.1116000 96.640998840 2.2506000996  -999.250000 -999.250000
 1724.2640000 97.213699341 2.2534999847  -999.250000 -999.250000
 1724.4164000 97.420501709 2.2544999123  -999.250000 -999.250000
 1724.5688000 97.727302551 2.2644000053  -999.250000 -999.250000
 1724.7212000 98.055603027 2.2595999241  -999.250000 -999.250000
