~Version Information Section
 VERS.      2.0         :CWLS LOG ASCII STANDARD - VERSION 2.0
 WRAP.      NO          :SINGLE LINE PER DEPTH STEP
 CREA.      8/24/2012 12:51:22
~Well Information Section
#MNEM.UNIT                      VALUE/NAME                 DESCRIPTION
#----.----     ----------------------------------   --------------------
 STRT .m          1517.0000000                         :START DEPTH
 STOP .m          3850.7012000                         :STOP DEPTH
 STEP .m            0.15240000                         :STEP VALUE
 NULL .            -999.250000                          :NULL VALUE
 SRVC .          SCH                                  :Service Company/Logging company
 DATE .          08/24/2012                           :LAS file Creation Date
 WELL .          KK1                                  :Well Name
 COMP .          NPK                                  :Company
 FLD  .          DY                                   :Field
 STATE.                                               :State
 COUNT.                                               :Country
 LOC  .                                               :Location
 LATI .          0                                    :Latitude/Northing
 LONG .          0                                    :Longitude/Easting
 PDAT .          RT                                   :Permanent Datum
 EPDAT.          0.0000                               :Elevation of Permanent Datum
 LGMEA.          RT                                   :Log Measured from
 KB   .          15.0000                              :KB Elevation
 UWI.            KK1                                  :UNIQUE WELL ID

#==================================================================
~Curve
DEPT .m                   : DEPTH
DT .us/ft                 : DT
RHOB           .g/cm3     : RHOB
SW  .m3/m3                : SW 
PHIE           .m3/m3     : PHIE

~Parameter
#==================================================================
~Ascii
# ...
 4454.9672000 57.526699066 2.5794999599 0.6499000192 0.0910999998
 4455.1196000 57.914699554 2.5734000206 0.6240000129 0.0938000008
 4455.2720000 58.355400085 2.5720999241 0.6186000109 0.0939999968
 4455.4244000 58.673000336 2.5783998966 0.6380000114 0.0908999965
 4455.5768000 58.742000580 2.5920000076 0.6877999902 0.0842000023
 4455.7292000 58.322799683 2.6136000156 0.7950000167 0.0732000023
 4455.8816000 57.483501434 2.6317000389 0.9302999973 0.0640000030
 4456.0340000 56.380001068 2.6331000328 0.9943000078 0.0643000007
 4456.1864000 55.513999939 2.6131999493 0.9581999779 0.0759000033
 4456.3388000 55.477001190 2.5748000145 0.8921999931 0.0978000015
 4456.4912000 56.500701904 2.5309998989 0.8594999909 0.1235999987
 4456.6436000 58.499000549 2.4916000366 0.8615000248 0.1484999955
 4456.7960000 60.935100555 2.4607999325 0.8885999918 0.1692000031
 4456.9484000 63.344200134 2.4388999939 0.9312000275 0.1850000024
 4457.1008000 65.434799194 2.4240999222 0.9729999900 0.1967000067
 4457.2532000 67.132797241 2.4140999317 1.0000000000 0.2053000033
 4457.4056000 68.411003113 2.4068000317 1.0000000000 0.2100999951
 4457.5580000 69.309196472 2.4007000923 1.0000000000 0.2140000015
 4457.7104000 69.867500305 2.3956999779 1.0000000000 0.2175000012
 4457.8628000 70.230300903 2.3921000957 1.0000000000 0.2202000022
 4458.0152000 70.493698120 2.3900001049 1.0000000000 0.2215999961
 4458.1676000 70.717796326 2.3889000416 1.0000000000 0.2222000062
 4458.3200000 70.877502441 2.3887999058 1.0000000000 0.2224999964
 4458.4724000 70.995796204 2.3896000385 1.0000000000 0.2217999995
 4458.6248000 71.053001404 2.3910999298 1.0000000000 0.2203000039
 4458.7772000 71.065200806 2.3924000263 1.0000000000 0.2192000002
 4458.9296000 71.021003723 2.3933000565 1.0000000000 0.2186000049
 4459.0820000 70.930397034 2.3943998814 1.0000000000 0.2176000029
 4459.2344000 70.780502319 2.3961000443 1.0000000000 0.2158000022
 4459.3868000 70.568801880 2.3986001015 1.0000000000 0.2135999948
 4459.5392000 70.291496277 2.4028000832 1.0000000000 0.2105000019
 4459.6916000 69.972297668 2.4093999863 1.0000000000 0.2061000019
 4459.8440000 69.613601685 2.4193000793 1.0000000000 0.2000000030
 4459.9964000 69.183403015 2.4323999882 1.0000000000 0.1920000017
 4460.1488000 68.627098083 2.4477999210 1.0000000000 0.1827999949
 4460.3012000 67.880798340 2.4640998840 1.0000000000 0.1732999980
 4460.4536000 66.900100708 2.4791998863 1.0000000000 0.1642999947
 4460.6060000 65.726303101 2.4897999763 1.0000000000 0.1572999954
 4460.7584000 64.570297241 2.4934999943 1.0000000000 0.1544000059
 4460.9108000 63.799098969 2.4888000488 1.0000000000 0.1569000036
 4461.0632000 63.615699768 2.4788000584 1.0000000000 0.1631000042
 4461.2156000 64.076400757 2.4669001102 0.9761000276 0.1693000048
 4461.3680000 64.881896973 2.4560999870 0.9330000281 0.1741999984
 4461.5204000 65.652397156 2.4502000809 0.9053999782 0.1770000011
 4461.6728000 66.241798401 2.4495999813 0.8883000016 0.1773000062
 4461.8252000 66.451499939 2.4568998814 0.8845000267 0.1729999930
 4461.9776000 66.316497803 2.4697999954 0.8891999722 0.1650999933
 4462.1300000 65.749801636 2.4885001183 0.9054999948 0.1536999941
 4462.2824000 64.824897766 2.5069999695 0.9186000228 0.1423999965
 4462.4348000 63.601398468 2.5213000774 0.9208999872 0.1330000013
 4462.5872000 62.352798462 2.5280001163 0.9031999707 0.1271000057
 4462.7396000 61.385898590 2.5250000954 0.8561999798 0.1264999956
 4462.8920000 60.887699127 2.5158998966 0.7968999743 0.1297000051
 4463.0444000 60.882400513 2.5048000813 0.7473000288 0.1343999952
 4463.1968000 61.159801483 2.4960999489 0.7157999873 0.1384000033
 4463.3492000 61.496601105 2.4914000034 0.7013999820 0.1407999992
 4463.5016000 61.716899872 2.4904000759 0.6972000003 0.1416999996
 4463.6540000 61.754600525 2.4918999672 0.6977000237 0.1414999962
 4463.8064000 61.593898773 2.4958000183 0.7028999925 0.1397999972
 4463.9588000 61.286399841 2.5020999908 0.7149000168 0.1366000026
 4464.1112000 60.929798126 2.5093998909 0.7308999896 0.1327999979
 4464.2636000 60.666099548 2.5144999027 0.7419999838 0.1301999986
 4464.4160000 60.634799957 2.5141999722 0.7401999831 0.1303000003
 4464.5684000 60.828899384 2.5102000237 0.7300000191 0.1318999976
 4464.7208000 61.196800232 2.5078999996 0.7218999863 0.1327999979
 4464.8732000 61.616298676 2.5100998878 0.7221999764 0.1317999959
 4465.0256000 61.930999756 2.5178999901 0.7362999916 0.1275999993
 4465.1780000 62.019500732 2.5287001133 0.7572000027 0.1217999980
 4465.3304000 61.713199615 2.5425999165 0.7865999937 0.1142000034
 4465.4828000 61.027900696 2.5594999790 0.8253999949 0.1054000035
 4465.6352000 59.993099213 2.5769999027 0.8726999760 0.0964000002
 4465.7876000 58.853900909 2.5894000530 0.9089000225 0.0899000019
 4465.9400000 57.897899628 2.5919001102 0.9056000113 0.0882999972
 4466.0924000 57.365001678 2.5862998962 0.8665000200 0.0905999988
 4466.2448000 57.362400055 2.5775001049 0.8144999743 0.0944000036
 4466.3972000 57.731998444 2.5710000992 0.7710999846 0.0974000022
 4466.5496000 58.178901672 2.5708999634 0.7512999773 0.0970999971
 4466.7020000 58.361000061 2.5794999599 0.7641000152 0.0922000036
 4466.8544000 58.110099792 2.5959999561 0.8091999888 0.0835999995
 4467.0068000 57.429798126 2.6159999371 0.8725000024 0.0734999999
 4467.1592000 56.541000366 2.6333999634 0.9322000146 0.0644000024
 4467.3116000 55.737098694 2.6447000504 0.9635999799 0.0575000010
 4467.4640000 55.205600739 2.6521000862 0.9657999873 0.0524999984
 4467.6164000 54.984001160 2.6612000465 0.9797000289 0.0469000004
 4467.7688000 54.812000275 2.6761999130 1.0000000000 0.0370999984
 4467.9212000 54.374599457 2.6967000961 1.0000000000 0.0230999999
 4468.0736000 53.591800690 2.7195000648 1.0000000000 0.0077000000
 4468.2260000 52.493900299 2.7397999763 1.0000000000 0.0001000000
 4468.3784000 51.381000519 2.7546000481 1.0000000000 0.0001000000
 4468.5308000 50.500301361 2.7604999542 1.0000000000 0.0001000000
 4468.6832000 49.962501526 2.7562999725 1.0000000000 0.0001000000
 4468.8356000 49.867500305 2.7390999794 1.0000000000 0.0001000000
 4468.9880000 50.175800323 2.7118999958 1.0000000000 0.0081000002
 4469.1404000 50.924999237 2.6782000065 1.0000000000 0.0307999998
 4469.2928000 52.091400146 2.6445999146 1.0000000000 0.0540000014
 4469.4452000 53.640499115 2.6171000004 0.9014000297 0.0707999989
 4469.5976000 55.342399597 2.5999999046 0.8719000220 0.0813999996
 4469.7500000 56.894599915 2.5948998928 0.8931000233 0.0857999995
 4469.9024000 57.990100861 2.6008000374 0.9474999905 0.0843999982
 4470.0548000 58.480098724 2.6154000759 1.0000000000 0.0767000020
 4470.2072000 58.278400421 2.6396999359 1.0000000000 0.0608999990
 4470.3596000 57.450901031 2.6737000942 1.0000000000 0.0388000011
 4470.5120000 56.033699036 2.7156999111 1.0000000000 0.0118000004
 4470.6644000 54.291099548 2.7565000057 1.0000000000 0.0001000000
 4470.8168000 52.524799347 2.7811000347 1.0000000000 0.0001000000
 4470.9692000 51.023300171 2.7809000015 1.0000000000 0.0001000000
 4471.1216000 50.357898712 2.7481999397 1.0000000000 0.0001000000
 4471.2740000 50.611198425 2.6963999271 1.0000000000 0.0248000007
 4471.4264000 52.187599182 2.6366000175 1.0000000000 0.0631000027
 4471.5788000 54.597499847 2.5834000111 1.0000000000 0.0965000018
 4471.7312000 57.445098877 2.5416998863 1.0000000000 0.1225000024
 4471.8836000 60.158798218 2.5088999271 1.0000000000 0.1429000050
 4472.0360000 62.395099640 2.4842998981 1.0000000000 0.1582999974
 4472.1884000 64.088699341 2.4660000801 1.0000000000 0.1696999967
 4472.3408000 65.216300964 2.4540998936 1.0000000000 0.1773000062
 4472.4932000 65.936996460 2.4474999905 1.0000000000 0.1818999946
 4472.6456000 66.359199524 2.4463000298 1.0000000000 0.1829999983
 4472.7980000 66.569702148 2.4493999481 1.0000000000 0.1811999977
 4472.9504000 66.595901489 2.4560999870 1.0000000000 0.1770000011
 4473.1028000 66.429000854 2.4663999081 1.0000000000 0.1703999937
 4473.2552000 66.056900024 2.4818999767 1.0000000000 0.1603000015
 4473.4076000 65.415000916 2.5060000420 1.0000000000 0.1446000040
