~Version Information Section
 VERS.      2.0         :CWLS LOG ASCII STANDARD - VERSION 2.0
 WRAP.      NO          :SINGLE LINE PER DEPTH STEP
 CREA.      8/24/2012 12:51:22
~Well Information Section
#MNEM.UNIT                      VALUE/NAME                 DESCRIPTION
#----.----     ----------------------------------   --------------------
 STRT .m          1517.0000000                         :START DEPTH
 STOP .m          3850.7012000                         :STOP DEPTH
 STEP .m            0.15240000                         :STEP VALUE
 NULL .            -999.250000                          :NULL VALUE
 SRVC .          SCH                                  :Service Company/Logging company
 DATE .          08/24/2012                           :LAS file Creation Date
 WELL .          KK1                                  :Well Name
 COMP .          NPK                                  :Company
 FLD  .          DY                                   :Field
 STATE.                                               :State
 COUNT.                                               :Country
 LOC  .                                               :Location
 LATI .          0                                    :Latitude/Northing
 LONG .          0                                    :Longitude/Easting
 PDAT .          RT                                   :Permanent Datum
 EPDAT.          0.0000                               :Elevation of Permanent Datum
 LGMEA.          RT                                   :Log Measured from
 KB   .          15.0000                              :KB Elevation
 UWI.            KK1                                  :UNIQUE WELL ID

#==================================================================
~Curve
DEPT .m                   : DEPTH
DT .us/ft                 : DT
RHOB           .g/cm3     : RHOB
SW  .m3/m3                : SW 
PHIE           .m3/m3     : PHIE

~Parameter
#==================================================================
~Ascii
# ...
 3671.3264000 72.863197327 2.3901998997  -999.250000 -999.250000
 3671.4788000 72.763198853 2.3910000324  -999.250000 -999.250000
 3671.6312000 72.547698975 2.3940999508  -999.250000 -999.250000
 3671.7836000 72.280403137 2.3973000050  -999.250000 -999.250000
 3671.9360000 72.368202209 2.3943998814  -999.250000 -999.250000
 3672.0884000 72.840301514 2.3880999088  -999.250000 -999.250000
 3672.2408000 73.758399963 2.3828001022  -999.250000 -999.250000
 3672.3932000 74.750999451 2.3831000328  -999.250000 -999.250000
 3672.5456000 75.534599304 2.3833999634  -999.250000 -999.250000
 3672.6980000 75.770401001 2.3803000450  -999.250000 -999.250000
 3672.8504000 75.009902954 2.3803000450  -999.250000 -999.250000
 3673.0028000 73.509902954 2.3805999756  -999.250000 -999.250000
 3673.1552000 71.649497986 2.3972001076  -999.250000 -999.250000
 3673.3076000 70.343597412 2.4098999500  -999.250000 -999.250000
 3673.4600000 70.104103088 2.4149999619  -999.250000 -999.250000
 3673.6124000 70.902999878 2.4035999775  -999.250000 -999.250000
 3673.7648000 72.294799805 2.3898999691  -999.250000 -999.250000
 3673.9172000 73.691398621 2.3822999001  -999.250000 -999.250000
 3674.0696000 74.799499512 2.3768000603  -999.250000 -999.250000
 3674.2220000 75.216102600 2.3747000694  -999.250000 -999.250000
 3674.3744000 75.083900452 2.3759000301  -999.250000 -999.250000
 3674.5268000 75.252899170 2.3782999516  -999.250000 -999.250000
 3674.6792000 74.742500305 2.3773000240  -999.250000 -999.250000
 3674.8316000 74.152900696 2.3780000210  -999.250000 -999.250000
 3674.9840000 73.605697632 2.3819000721  -999.250000 -999.250000
 3675.1364000 73.008003235 2.3847000599  -999.250000 -999.250000
 3675.2888000 72.817298889 2.3882999420  -999.250000 -999.250000
 3675.4412000 72.542701721 2.3940999508  -999.250000 -999.250000
 3675.5936000 72.020103455 2.4045999050  -999.250000 -999.250000
 3675.7460000 71.734001160 2.4098000526  -999.250000 -999.250000
 3675.8984000 71.767402649 2.4107999802  -999.250000 -999.250000
 3676.0508000 72.109703064 2.4040999413  -999.250000 -999.250000
 3676.2032000 72.604797363 2.3973999023  -999.250000 -999.250000
 3676.3556000 72.903999329 2.3931000233  -999.250000 -999.250000
 3676.5080000 72.943702698 2.3924999237  -999.250000 -999.250000
 3676.6604000 72.926399231 2.3922998905  -999.250000 -999.250000
 3676.8128000 72.781600952 2.3896999359  -999.250000 -999.250000
 3676.9652000 72.768402100 2.3886001110  -999.250000 -999.250000
 3677.1176000 72.726402283 2.3873999119  -999.250000 -999.250000
 3677.2700000 72.673599243 2.3835999966  -999.250000 -999.250000
 3677.4224000 72.836799622 2.3787999153  -999.250000 -999.250000
 3677.5748000 73.083900452 2.3740999699  -999.250000 -999.250000
 3677.7272000 73.583900452 2.3712000847  -999.250000 -999.250000
 3677.8796000 73.545196533 2.3756000996  -999.250000 -999.250000
 3678.0320000 72.445503235 2.3873999119  -999.250000 -999.250000
 3678.1844000 70.866600037 2.4014000893  -999.250000 -999.250000
 3678.3368000 69.746696472 2.4068000317  -999.250000 -999.250000
 3678.4892000 70.354103088 2.4021000862  -999.250000 -999.250000
 3678.6416000 71.272102356 2.3965001106  -999.250000 -999.250000
 3678.7940000 71.652900696 2.3949999809  -999.250000 -999.250000
 3678.9464000 71.381599426 2.3931999207  -999.250000 -999.250000
 3679.0988000 71.515502930 2.3928000927  -999.250000 -999.250000
 3679.2512000 72.094299316 2.3821001053  -999.250000 -999.250000
 3679.4036000 72.912696838 2.3677000999  -999.250000 -999.250000
 3679.5560000 73.670700073 2.3540000916  -999.250000 -999.250000
 3679.7084000 74.068397522 2.3559000492  -999.250000 -999.250000
 3679.8608000 73.750503540 2.3589999676  -999.250000 -999.250000
 3680.0132000 73.068397522 2.3626999855  -999.250000 -999.250000
 3680.1656000 72.831901550 2.3635001183  -999.250000 -999.250000
 3680.3180000 72.347900391 2.3722000122  -999.250000 -999.250000
 3680.4704000 71.591598511 2.3801999092  -999.250000 -999.250000
 3680.6228000 71.102798462 2.3884000778  -999.250000 -999.250000
 3680.7752000 70.776000977 2.3956999779  -999.250000 -999.250000
 3680.9276000 70.656898499 2.4042999744  -999.250000 -999.250000
 3681.0800000 70.951202393 2.4047999382  -999.250000 -999.250000
 3681.2324000 71.256301880 2.4070000648  -999.250000 -999.250000
 3681.3848000 71.052902222 2.4087998867  -999.250000 -999.250000
 3681.5372000 70.027496338 2.4256000519  -999.250000 -999.250000
 3681.6896000 68.295402527 2.4565000534  -999.250000 -999.250000
 3681.8420000 67.489601135 2.4844000340  -999.250000 -999.250000
 3681.9944000 67.373596191 2.4835000038  -999.250000 -999.250000
 3682.1468000 68.107002258 2.4607999325  -999.250000 -999.250000
 3682.2992000 69.315498352 2.4416000843  -999.250000 -999.250000
 3682.4516000 69.268898010 2.4451000690  -999.250000 -999.250000
 3682.6040000 68.203399658 2.4586999416  -999.250000 -999.250000
 3682.7564000 67.294799805 2.4649999142  -999.250000 -999.250000
 3682.9088000 67.678199768 2.4437999725  -999.250000 -999.250000
 3683.0612000 69.107002258 2.4077999592  -999.250000 -999.250000
 3683.2136000 70.683403015 2.3838000298  -999.250000 -999.250000
 3683.3660000 71.121803284 2.3908998966  -999.250000 -999.250000
 3683.5184000 69.748199463 2.4184000492  -999.250000 -999.250000
 3683.6708000 68.248199463 2.4358000755  -999.250000 -999.250000
 3683.8232000 67.215797424 2.4430999756  -999.250000 -999.250000
 3683.9756000 67.386901855 2.4344000816  -999.250000 -999.250000
 3684.1280000 67.826797485 2.4286000729  -999.250000 -999.250000
 3684.2804000 67.860000610 2.4291000366  -999.250000 -999.250000
 3684.4328000 68.506896973 2.4351000786  -999.250000 -999.250000
 3684.5852000 69.308296204 2.4224998951  -999.250000 -999.250000
 3684.7376000 70.524398804 2.4049999714  -999.250000 -999.250000
 3684.8900000 71.993896484 2.3905999660  -999.250000 -999.250000
 3685.0424000 72.393302917 2.3887999058  -999.250000 -999.250000
 3685.1948000 72.170700073 2.3896999359  -999.250000 -999.250000
 3685.3472000 72.079597473 2.3956000805  -999.250000 -999.250000
 3685.4996000 71.962997437 2.4091000557  -999.250000 -999.250000
 3685.6520000 71.801902771 2.4159998894  -999.250000 -999.250000
 3685.8044000 71.945602417 2.4100999832  -999.250000 -999.250000
 3685.9568000 72.421203613 2.4059000015  -999.250000 -999.250000
 3686.1092000 72.429100037 2.4119000435  -999.250000 -999.250000
 3686.2616000 71.490196228 2.4275999069  -999.250000 -999.250000
 3686.4140000 70.368896484 2.4365000725  -999.250000 -999.250000
 3686.5664000 70.222999573 2.4298999310  -999.250000 -999.250000
 3686.7188000 71.097099304 2.4072000980  -999.250000 -999.250000
 3686.8712000 71.846603394 2.3847999573  -999.250000 -999.250000
 3687.0236000 73.067901611 2.3754000664  -999.250000 -999.250000
 3687.1760000 73.810401917 2.3687999249  -999.250000 -999.250000
 3687.3284000 73.834503174 2.3717999458  -999.250000 -999.250000
 3687.4808000 73.163803101 2.3791000843  -999.250000 -999.250000
 3687.6332000 71.892997742 2.4024000168  -999.250000 -999.250000
 3687.7856000 70.445396423 2.4186000824  -999.250000 -999.250000
 3687.9380000 68.959098816 2.4365999699  -999.250000 -999.250000
 3688.0904000 67.397697449 2.4549999237  -999.250000 -999.250000
 3688.2428000 66.792503357 2.4776000977  -999.250000 -999.250000
 3688.3952000 66.368400574 2.4828000069  -999.250000 -999.250000
 3688.5476000 66.822998047 2.4802999496  -999.250000 -999.250000
 3688.7000000 67.825897217 2.4804999828  -999.250000 -999.250000
 3688.8524000 68.300003052 2.4906001091  -999.250000 -999.250000
 3689.0048000 68.300003052 2.4853999615  -999.250000 -999.250000
 3689.1572000 68.208000183 2.4635000229  -999.250000 -999.250000
 3689.3096000 68.086799622 2.4409000874  -999.250000 -999.250000
 3689.4620000 68.425903320 2.4279000759  -999.250000 -999.250000
 3689.6144000 69.415000916 2.4205999374  -999.250000 -999.250000
 3689.7668000 70.759803772 2.4119000435  -999.250000 -999.250000
 3689.9192000 71.711601257 2.4030001163  -999.250000 -999.250000
 3690.0716000 72.052200317 2.4005999565  -999.250000 -999.250000
