~Version Information Section
 VERS.      2.0         :CWLS LOG ASCII STANDARD - VERSION 2.0
 WRAP.      NO          :SINGLE LINE PER DEPTH STEP
 CREA.      8/24/2012 12:51:22
~Well Information Section
#MNEM.UNIT                      VALUE/NAME                 DESCRIPTION
#----.----     ----------------------------------   --------------------
 STRT .m          1517.0000000                         :START DEPTH
 STOP .m          3850.7012000                         :STOP DEPTH
 STEP .m            0.15240000                         :STEP VALUE
 NULL .            -999.250000                          :NULL VALUE
 SRVC .          SCH                                  :Service Company/Logging company
 DATE .          08/24/2012                           :LAS file Creation Date
 WELL .          KK1                                  :Well Name
 COMP .          NPK                                  :Company
 FLD  .          DY                                   :Field
 STATE.                                               :State
 COUNT.                                               :Country
 LOC  .                                               :Location
 LATI .          0                                    :Latitude/Northing
 LONG .          0                                    :Longitude/Easting
 PDAT .          RT                                   :Permanent Datum
 EPDAT.          0.0000                               :Elevation of Permanent Datum
 LGMEA.          RT                                   :Log Measured from
 KB   .          15.0000                              :KB Elevation
 UWI.            KK1                                  :UNIQUE WELL ID

#==================================================================
~Curve
DEPT .m                   : DEPTH
DT .us/ft                 : DT
RHOB           .g/cm3     : RHOB
SW  .m3/m3                : SW 
PHIE           .m3/m3     : PHIE

~Parameter
#==================================================================
~Ascii
# ...
 3293.3744000 74.613197327 2.4207999706 1.0000000000 .2014999986
 3293.5268000 74.220703125 2.4258000851 1.0000000000 .1981000006
 3293.6792000 74.098602295 2.4263999462 1.0000000000 .1976999938
 3293.8316000 74.085098267 2.4228000641 1.0000000000 .2002000064
 3293.9840000 74.031600952 2.4156000614 1.0000000000 .2052000016
 3294.1364000 73.856796265 2.4075000286 1.0000000000 .2106000036
 3294.2888000 73.592697144 2.4026000500 1.0000000000 .2134999931
 3294.4412000 73.386001587 2.4045999050 1.0000000000 .2119999975
 3294.5936000 73.325897217 2.4135999680 1.0000000000 .2061000019
 3294.7460000 73.415298462 2.4261999130 1.0000000000 .1978999972
 3294.8984000 73.589302063 2.4368999004 1.0000000000 .1913000047
 3295.0508000 73.761299133 2.4398000240 1.0000000000 .1897000074
 3295.2032000 73.898597717 2.4340000153 1.0000000000 .1935999990
 3295.3556000 74.005996704 2.4235000610 1.0000000000 .2002999932
 3295.5080000 74.069801331 2.4154000282 1.0000000000 .2054000050
 3295.6604000 74.044601440 2.4138000011 1.0000000000 .2061000019
 3295.8128000 73.900596619 2.4151000977 1.0000000000 .2046999931
 3295.9652000 73.616600037 2.4152998924 1.0000000000 .2040999979
 3296.1176000 73.300498962 2.4130001068 1.0000000000 .2055000067
 3296.2700000 73.078201294 2.4075999260 1.0000000000 .2092999965
 3296.4224000 72.992500305 2.4007000923 1.0000000000 .2140000015
 3296.5748000 73.073997498 2.3942999840 1.0000000000 .2182999998
 3296.7272000 73.295997620 2.3905000687 1.0000000000 .2207999974
 3296.8796000 73.595397949 2.3901998997 1.0000000000 .2207999974
 3297.0320000 73.794197083 2.3921000957 1.0000000000 .2189999968
 3297.1844000 73.717300415 2.3956999779 1.0000000000 .2161999941
 3297.3368000 73.356903076 2.4014000893 1.0000000000 .2122000009
 3297.4892000 72.878501892 2.4100000858 1.0000000000 .2064999938
 3297.6416000 72.529296875 2.4203000069 1.0000000000 .1999000013
 3297.7940000 72.379501343 2.4302000999 1.0000000000 .1938000023
 3297.9464000 72.310302734 2.4375998974 1.0000000000 .1895000041
 3298.0988000 72.193801880 2.4416999817 1.0000000000 .1871999949
 3298.2512000 72.039299011 2.4416999817 1.0000000000 .1873999983
 3298.4036000 72.037101746 2.4379999638 1.0000000000 .1896000057
 3298.5560000 72.408996582 2.4291999340 1.0000000000 .1950999945
 3298.7084000 73.106903076 2.4165000916 1.0000000000 .2034000009
 3298.8608000 73.905899048 2.4040999413 1.0000000000 .2115000039
 3299.0132000 74.496902466 2.3968999386 1.0000000000 .2161000073
 3299.1656000 74.602600098 2.3991999626 1.0000000000 .2148000002
 3299.3180000 74.266700745 2.4072000980 1.0000000000 .2099999934
 3299.4704000 73.525001526 2.4170000553 1.0000000000 .2039999962
 3299.6228000 72.638099670 2.4242999554 1.0000000000 .1994999945
 3299.7752000 71.830703735 2.4261000156 1.0000000000 .1984000057
 3299.9276000 71.287101746 2.4226999283 1.0000000000 .2005999982
 3300.0800000 71.119796753 2.4156999588 1.0000000000 .2048999965
 3300.2324000 71.181503296 2.4112000465 1.0000000000 .2073999941
 3300.3848000 71.302696228 2.4152998924 1.0000000000 .2043000013
 3300.5372000 71.368103027 2.4289999008 1.0000000000 .1950999945
 3300.6896000 71.394302368 2.4458999634 1.0000000000 .1838999987
 3300.8420000 71.493598938 2.4551000595 1.0000000000 .1775999963
 3300.9944000 71.783599854 2.4518001080 1.0000000000 .1793999970
 3301.1468000 72.282203674 2.4395000935 1.0000000000 .1873999983
 3301.2992000 72.886199951 2.4258999825 1.0000000000 .1966000050
 3301.4516000 73.403503418 2.4161999226 1.0000000000 .2035000026
 3301.6040000 73.644798279 2.4110999107 1.0000000000 .2073999941
 3301.7564000 73.563400269 2.4096000195 1.0000000000 .2090000063
 3301.9088000 73.566200256 2.4087998867 1.0000000000 .2099000067
 3302.0612000 73.703697205 2.4065999985 1.0000000000 .2113000005
 3302.2136000 73.663803101 2.4033000469 1.0000000000 .2131000012
 3302.3660000 73.281097412 2.3994998932 1.0000000000 .2148000002
 3302.5184000 72.793502808 2.3959999084 1.0000000000 .2161000073
 3302.6708000 72.565101624 2.3935999870 1.0000000000 .2170999944
 3302.8232000 72.662597656 2.3926999569 1.0000000000 .2177000046
 3302.9756000 72.982902527 2.3938000202 1.0000000000 .2176000029
 3303.1280000 73.243797302 2.3970000744 1.0000000000 .2161000073
 3303.2804000 73.290702820 2.4022998810 1.0000000000 .2131000012
 3303.4328000 73.178596497 2.4082999229 1.0000000000 .2098000050
 3303.5852000 72.971603394 2.4133000374 1.0000000000 .2071000040
 3303.7376000 72.721496582 2.4165000916 1.0000000000 .2052000016
 3303.8900000 72.421897888 2.4189999104 1.0000000000 .2032999992
 3304.0424000 72.100097656 2.4217998981 1.0000000000 .2010000050
 3304.1948000 71.838401794 2.4251000881 1.0000000000 .1984000057
 3304.3472000 71.701301575 2.4282000065 1.0000000000 .1961999983
 3304.4996000 71.628700256 2.4300000668 1.0000000000 .1948000044
 3304.6520000 71.491500854 2.4298000336 1.0000000000 .1946000010
 3304.8044000 71.221397400 2.4275000095 1.0000000000 .1958000064
 3304.9568000 70.870002747 2.4221999645 1.0000000000 .1991000026
 3305.1092000 70.570602417 2.4151000977 1.0000000000 .2037000060
 3305.2616000 70.425300598 2.4093999863 1.0000000000 .2072000057
 3305.4140000 70.399597168 2.4080998898 1.0000000000 .2080000043
 3305.5664000 70.445503235 2.4128999710 1.0000000000 .2050999999
 3305.7188000 70.525901794 2.4198999405 1.0000000000 .2011000067
 3305.8712000 70.654602051 2.4249999523 1.0000000000 .1987999976
 3306.0236000 70.828498840 2.4268000126 1.0000000000 .1986999959
 3306.1760000 71.044799805 2.4258000851 1.0000000000 .1996999979
 3306.3284000 71.308601379 2.4251999855 1.0000000000 .2000000030
 3306.4808000 71.639503479 2.4277000427 1.0000000000 .1981000006
 3306.6332000 71.971801758 2.4337000847 1.0000000000 .1938000023
 3306.7856000 72.191497803 2.4412000179 1.0000000000 .1882999986
 3306.9380000 72.258201599 2.4461998940 1.0000000000 .1843000054
 3307.0904000 72.211898804 2.4472000599 1.0000000000 .1832000017
 3307.2428000 72.159301758 2.4460000992 1.0000000000 .1836999953
 3307.3952000 72.123397827 2.4451000690 1.0000000000 .1838999987
 3307.5476000 72.028999329 2.4437999725 1.0000000000 .1844000071
 3307.7000000 71.837402344 2.4398000240 1.0000000000 .1864999980
 3307.8524000 71.575202942 2.4328000546 1.0000000000 .1905000061
 3308.0048000 71.266098022 2.4260001183 1.0000000000 .1948000044
 3308.1572000 70.931396484 2.4231998920 1.0000000000 .1968999952
 3308.3096000 70.652801514 2.4245998859 1.0000000000 .1963000000
 3308.4620000 70.611900330 2.4291000366 1.0000000000 .1935999990
 3308.6144000 70.818000793 2.4335000515 1.0000000000 .1909999996
 3308.7668000 71.160003662 2.4349999428 1.0000000000 .1903000027
 3308.9192000 71.475700378 2.4335999489 1.0000000000 .1913000047
 3309.0716000 71.737503052 2.4303998947 1.0000000000 .1935999990
 3309.2240000 71.960800171 2.4275000095 1.0000000000 .1958999932
 3309.3764000 72.066398621 2.4252998829 1.0000000000 .1978999972
 3309.5288000 71.960601807 2.4233000278 1.0000000000 .1997999996
 3309.6812000 71.592399597 2.4223001003 1.0000000000 .2009000033
 3309.8336000 71.194099426 2.4237999916 1.0000000000 .2002000064
 3309.9860000 71.054801941 2.4289000034 1.0000000000 .1968999952
 3310.1384000 71.264701843 2.4356999397 1.0000000000 .1922000051
 3310.2908000 71.642501831 2.4419999123 1.0000000000 .1876000017
 3310.4432000 71.865699768 2.4454998970 1.0000000000 .1849000007
 3310.5956000 71.860198975 2.4460999966 1.0000000000 .1843000054
 3310.7480000 71.821403503 2.4451999664 1.0000000000 .1847999990
 3310.9004000 71.902999878 2.4440000057 1.0000000000 .1853999943
 3311.0528000 72.218803406 2.4421000481 1.0000000000 .1864999980
 3311.2052000 72.808998108 2.4377999306 1.0000000000 .1888999939
 3311.3576000 73.556701660 2.4303998947 1.0000000000 .1932000071
 3311.5100000 74.136100769 2.4233000278 1.0000000000 .1976000071
 3311.6624000 74.243598938 2.4219000340 1.0000000000 .1990000010
 3311.8148000 74.032096863 2.4261000156 1.0000000000 .1967999935
 3311.9672000 73.809402466 2.4321999550 1.0000000000 .1932999939
 3312.1196000 73.713401794 2.4347999096 1.0000000000 .1922000051
