~Version Information Section
 VERS.      2.0         :CWLS LOG ASCII STANDARD - VERSION 2.0
 WRAP.      NO          :SINGLE LINE PER DEPTH STEP
 CREA.      8/24/2012 12:51:22
~Well Information Section
#MNEM.UNIT                      VALUE/NAME                 DESCRIPTION
#----.----     ----------------------------------   --------------------
 STRT .m          1517.0000000                         :START DEPTH
 STOP .m          3850.7012000                         :STOP DEPTH
 STEP .m            0.15240000                         :STEP VALUE
 NULL .            -999.250000                          :NULL VALUE
 SRVC .          SCH                                  :Service Company/Logging company
 DATE .          08/24/2012                           :LAS file Creation Date
 WELL .          KK1                                  :Well Name
 COMP .          NPK                                  :Company
 FLD  .          DY                                   :Field
 STATE.                                               :State
 COUNT.                                               :Country
 LOC  .                                               :Location
 LATI .          0                                    :Latitude/Northing
 LONG .          0                                    :Longitude/Easting
 PDAT .          RT                                   :Permanent Datum
 EPDAT.          0.0000                               :Elevation of Permanent Datum
 LGMEA.          RT                                   :Log Measured from
 KB   .          15.0000                              :KB Elevation
 UWI.            KK1                                  :UNIQUE WELL ID

#==================================================================
~Curve
DEPT .m                   : DEPTH
DT .us/ft                 : DT
RHOB           .g/cm3     : RHOB
SW  .m3/m3                : SW 
PHIE           .m3/m3     : PHIE

~Parameter
#==================================================================
~Ascii
# ...
 4269.0392000 56.706298828 2.6145999432 0.2012999952 0.0604000017
 4269.1916000 55.751201630 2.6319000721 0.2134999931 0.0520000011
 4269.3440000 55.205101013 2.6408998966 0.2125999928 0.0469999984
 4269.4964000 55.091201782 2.6412999630 0.1948000044 0.0458999984
 4269.6488000 55.344398499 2.6373999119 0.1696999967 0.0474000014
 4269.8012000 55.794498444 2.6345000267 0.1492999941 0.0489000008
 4269.9536000 56.251899719 2.6338999271 0.1352999955 0.0491000004
 4270.1060000 56.549701691 2.6324999332 0.1221999973 0.0493000001
 4270.2584000 56.637100220 2.6277999878 0.1071000025 0.0513999984
 4270.4108000 56.519798279 2.6206998825 0.0956000015 0.0553000011
 4270.5632000 56.275001526 2.6150999069 0.0940999985 0.0584999993
 4270.7156000 55.983501434 2.6133999825 0.1049000025 0.0592000000
 4270.8680000 55.741699219 2.6127998829 0.1224000007 0.0597000010
 4271.0204000 55.693199158 2.6103000641 0.1353999972 0.0619999990
 4271.1728000 55.812500000 2.6059999466 0.1451999992 0.0650999993
 4271.3252000 56.014701843 2.6024000645 0.1525000036 0.0666999966
 4271.4776000 56.119598389 2.6013998985 0.1587000042 0.0666999966
 4271.6300000 56.017299652 2.6034998894 0.1630000025 0.0654999986
 4271.7824000 55.835399628 2.6059999466 0.1650999933 0.0640999973
 4271.9348000 55.748901367 2.6068999767 0.1641000062 0.0631999969
 4272.0872000 55.843299866 2.6052999496 0.1574999988 0.0636999980
 4272.2396000 56.060100555 2.6019001007 0.1449999958 0.0654999986
 4272.3920000 56.202701569 2.5992000103 0.1307999939 0.0670000017
 4272.5444000 56.115798950 2.6001999378 0.1177999973 0.0666999966
 4272.6968000 55.815700531 2.6057999134 0.1067000031 0.0641999990
 4272.8492000 55.444400787 2.6143999100 0.0962999985 0.0595999993
 4273.0016000 55.153900146 2.6231000423 0.0820000023 0.0548000000
 4273.1540000 54.957000732 2.6317000389 0.0626000017 0.0505000018
 4273.3064000 54.750801086 2.6414000988 0.0362999998 0.0458000004
 4273.4588000 54.449298859 2.6514000893 0.0326999985 0.0408000015
 4273.6112000 54.083000183 2.6577999592 0.0355000012 0.0373000018
 4273.7636000 53.800800323 2.6577000618 0.0359000005 0.0368999988
 4273.9160000 53.805999756 2.6507000923 0.0335999988 0.0397000015
 4274.0684000 54.134201050 2.6405999660 0.0307000000 0.0436000004
 4274.2208000 54.692798615 2.6319999695 0.0288999993 0.0465999991
 4274.3732000 55.274700165 2.6261999607 0.0278999992 0.0483000018
 4274.5256000 55.650600433 2.6250998974 0.0443000011 0.0489000008
 4274.6780000 55.752700806 2.6273999214 0.0551000014 0.0485999994
 4274.8304000 55.551998138 2.6326000690 0.0549999997 0.0469999984
 4274.9828000 55.222599030 2.6391999722 0.0498999991 0.0443999991
 4275.1352000 54.906700134 2.6456999779 0.0423000008 0.0419000015
 4275.2876000 54.709499359 2.6501998901 0.0379000008 0.0405000001
 4275.4400000 54.680198669 2.6514999866 0.0406000018 0.0405000001
 4275.5924000 54.780601501 2.6500999928 0.0494999997 0.0416000001
 4275.7448000 54.960899353 2.6461999416 0.0639000013 0.0438000001
 4275.8972000 55.164600372 2.6403999329 0.0807999969 0.0465999991
 4276.0496000 55.376899719 2.6328999996 0.0956000015 0.0498000011
 4276.2020000 55.623798370 2.6231000423 0.1036999971 0.0540000014
 4276.3544000 55.955600739 2.6105000973 0.1033999994 0.0599000007
 4276.5068000 56.455001831 2.5948998928 0.0970000029 0.0674000010
 4276.6592000 57.128200531 2.5789999962 0.0899000019 0.0754000023
 4276.8116000 57.804901123 2.5683000088 0.0865999982 0.0811000019
 4276.9640000 58.205299377 2.5676000118 0.0900999978 0.0824000016
 4277.1164000 58.058998108 2.5806000233 0.1032999977 0.0773999989
 4277.2688000 57.481098175 2.6015000343 0.1279000044 0.0678000003
 4277.4212000 56.810298920 2.6178998947 0.1580000073 0.0592000000
 4277.5736000 56.345001221 2.6250000000 0.1844000071 0.0551000014
 4277.7260000 56.300701141 2.6221001148 0.1968999952 0.0560999997
 4277.8784000 56.472499847 2.6180000305 0.2075999975 0.0575999990
 4278.0308000 56.609001160 2.6177999973 0.2238000035 0.0570000000
 4278.1832000 56.558200836 2.6208999157 0.2425999939 0.0551000014
 4278.3356000 56.354499817 2.6252000332 0.2565000057 0.0533000007
 4278.4880000 56.162300110 2.6284999847 0.2617999911 0.0520000011
 4278.6404000 56.059700012 2.6301999092 0.2565999925 0.0513000004
 4278.7928000 56.007701874 2.6312000751 0.2460999936 0.0509000011
 4278.9452000 55.919799805 2.6333999634 0.2366999984 0.0496999994
 4279.0976000 55.732299805 2.6377000809 0.2302999943 0.0476999991
 4279.2500000 55.470001221 2.6435000896 0.2257000059 0.0452999994
 4279.4024000 55.210300446 2.6480998993 0.2182999998 0.0434999987
 4279.5548000 54.998699188 2.6496000290 0.2065999955 0.0427000001
 4279.7072000 54.858299255 2.6470000744 0.1885000020 0.0434000008
 4279.8596000 54.797100067 2.6426000595 0.1683000028 0.0452000014
 4280.0120000 54.824901581 2.6391999722 0.1544000059 0.0467000008
 4280.1644000 54.885200500 2.6379001141 0.1493999958 0.0467999987
 4280.3168000 54.890899658 2.6379001141 0.1483000070 0.0460000001
 4280.4692000 54.817199707 2.6379001141 0.1438000053 0.0456999987
 4280.6216000 54.694198608 2.6366999149 0.1307999939 0.0458999984
 4280.7740000 54.576301575 2.6343998909 0.1086999997 0.0461000018
 4280.9264000 54.496299744 2.6317999363 0.0425000004 0.0460000001
 4281.0788000 54.418300629 2.6314001083 0.0291000009 0.0463000014
 4281.2312000 54.271999359 2.6363000870 0.0299999993 0.0447000004
 4281.3836000 54.010601044 2.6466999054 0.0331999995 0.0401999988
 4281.5360000 53.608600616 2.6617999077 0.0397999994 0.0331000015
 4281.6884000 53.171501160 2.6779000759 0.0518000014 0.0250000004
 4281.8408000 52.823398590 2.6912999153 0.0711999983 0.0177999996
 4281.9932000 52.639801025 2.6993000507 0.0951000005 0.0130000003
 4282.1456000 52.637798309 2.7019999027 0.1108999997 0.0110999998
 4282.2980000 52.738098145 2.7028999329 0.1159999967 0.0104999999
 4282.4504000 52.803298950 2.7056999207 0.1296000034 0.0093999999
 4282.6028000 52.679698944 2.7119998932 0.1879000068 0.0063000000
 4282.7552000 52.348098755 2.7200999260 1.0000000000 0.0001000000
 4282.9076000 51.943698883 2.7269001007 1.0000000000 0.0001000000
 4283.0600000 51.617801666 2.7298998833 1.0000000000 0.0001000000
 4283.2124000 51.424900055 2.7286999226 1.0000000000 0.0001000000
 4283.3648000 51.304298401 2.7249999046 1.0000000000 0.0001000000
 4283.5172000 51.213199615 2.7195999622 1.0000000000 0.0008000000
 4283.6696000 51.185199738 2.7121999264 0.1764000058 0.0066999998
 4283.8220000 51.328201294 2.7014999390 0.1011999995 0.0121999998
 4283.9744000 51.637001038 2.6872999668 0.0676999986 0.0186999999
 4284.1268000 52.096199036 2.6723999977 0.0509000011 0.0253999997
 4284.2792000 52.496498108 2.6631999016 0.0436999984 0.0298999995
 4284.4316000 52.606899261 2.6656000614 0.0450000018 0.0289999992
 4284.5840000 52.426300049 2.6770999432 0.0553999990 0.0231999997
 4284.7364000 52.091400146 2.6912999153 0.0781999975 0.0161000006
 4284.8888000 51.858699799 2.7000999451 0.1045000032 0.0118000004
 4285.0412000 51.883800507 2.6998999119 0.0997999981 0.0124000004
 4285.1936000 52.082298279 2.6935000420 0.0762000009 0.0164999999
 4285.3460000 52.307998657 2.6842000484 0.0584999993 0.0219000001
 4285.4984000 52.495700836 2.6745998859 0.0482000001 0.0269000009
 4285.6508000 52.682201385 2.6649000645 0.0408999994 0.0322000012
 4285.8032000 52.916801453 2.6549999714 0.0351999998 0.0377999991
 4285.9556000 53.139801025 2.6470000744 0.0318999998 0.0419000015
 4286.1080000 53.143299103 2.6461000443 0.0320999995 0.0417000018
 4286.2604000 52.799598694 2.6552999020 0.0359999985 0.0368000008
 4286.4128000 52.088401794 2.6738998890 0.0465000011 0.0280000009
 4286.5652000 51.206001282 2.6937000751 0.0688000023 0.0184000004
 4286.7176000 50.437999725 2.7063999176 0.1011999995 0.0121999998
 4286.8700000 49.980800629 2.7114000320 0.1226999983 0.0098999999
 4287.0224000 49.980400085 2.7107999325 0.1163000017 0.0104999999
 4287.1748000 50.219600677 2.7093999386 0.1068999991 0.0115000000
 4287.3272000 50.536899567 2.7074999809 0.0988999978 0.0125000002
 4287.4796000 50.771800995 2.7042999268 0.0895999968 0.0138999997
